[{"index":0,"name":"Social Gaming Network","number_of_employees":100,"description":"HQ Los Angeles","address1":"9570 W. Pico Blvd 3rd Floor","address2":"","zip_code":"90035","city":"Los Angeles","state_code":"CA","country_code":"USA","latitude":37.446823,"longitude":-122.161523,"Geolocation":{"type":"Point","coordinates":[-122.161523,37.446823]}},{"index":1,"name":"Edmodo","number_of_employees":100,"description":"","address1":"60 E. Third Ave., #390","address2":"","zip_code":"94401","city":"San Mateo","state_code":"CA","country_code":"USA","latitude":41.857915,"longitude":-88.321171,"Geolocation":{"type":"Point","coordinates":[-88.321171,41.857915]}},{"index":2,"name":"plista","number_of_employees":100,"description":"Headquarter","address1":"Torstra\u00dfe 33-35","address2":"","zip_code":"10119","city":"Berlin","state_code":null,"country_code":"DEU","latitude":52.5283614,"longitude":13.4124563,"Geolocation":{"type":"Point","coordinates":[13.4124563,52.5283614]}},{"index":3,"name":"FetchBack","number_of_employees":100,"description":"FetchBack, Inc.","address1":"100 W University Drive","address2":"Suite 101","zip_code":"85281","city":"Tempe","state_code":"AZ","country_code":"USA","latitude":33.426418,"longitude":-111.9396,"Geolocation":{"type":"Point","coordinates":[-111.9396,33.426418]}},{"index":4,"name":"Trustpilot","number_of_employees":100,"description":"Copenhagen HQ","address1":"Trommesalen 5","address2":"","zip_code":"1614","city":"Copenhagen V","state_code":null,"country_code":"DNK","latitude":55.6739617,"longitude":12.5605372,"Geolocation":{"type":"Point","coordinates":[12.5605372,55.6739617]}},{"index":5,"name":"Taipan Publishing Group","number_of_employees":100,"description":"Headquarters","address1":"16 West Madison Street","address2":"","zip_code":"21201","city":"Baltimore","state_code":"MD","country_code":"USA","latitude":39.298734,"longitude":-76.616747,"Geolocation":{"type":"Point","coordinates":[-76.616747,39.298734]}},{"index":6,"name":"Pathway Genomics","number_of_employees":100,"description":"Pathway Genomics","address1":"4045 Sorrento Valley Blvd.","address2":"","zip_code":"92121","city":"San Diego","state_code":"CA","country_code":"USA","latitude":32.902576,"longitude":-117.218164,"Geolocation":{"type":"Point","coordinates":[-117.218164,32.902576]}},{"index":7,"name":"Clickpass","number_of_employees":90,"description":null,"address1":"","address2":"","zip_code":"","city":"San Francisco","state_code":"CA","country_code":"USA","latitude":37.775196,"longitude":-122.419204,"Geolocation":{"type":"Point","coordinates":[-122.419204,37.775196]}},{"index":8,"name":"Silver Tail Systems","number_of_employees":90,"description":"Headquarters","address1":"1010 El Camino Real #300","address2":"","zip_code":"94025","city":"Menlo Park","state_code":"CA","country_code":"USA","latitude":37.4280877,"longitude":-122.143368,"Geolocation":{"type":"Point","coordinates":[-122.143368,37.4280877]}},{"index":9,"name":"WordStream","number_of_employees":90,"description":"WordStream Inc","address1":"177 Huntington Ave.","address2":"16th Floor","zip_code":"02115","city":"Boston","state_code":"MA","country_code":"USA","latitude":42.354257,"longitude":-71.056605,"Geolocation":{"type":"Point","coordinates":[-71.056605,42.354257]}},{"index":10,"name":"SocialVibe","number_of_employees":80,"description":"HQ","address1":"11388 W Olympic Blvd.","address2":"","zip_code":"90064","city":"Los Angeles","state_code":"CA","country_code":"USA","latitude":34.0815238,"longitude":-118.3826743,"Geolocation":{"type":"Point","coordinates":[-118.3826743,34.0815238]}},{"index":11,"name":"Kontagent","number_of_employees":80,"description":"Corporate Headquarters","address1":"201 Mission Street","address2":"25th Floor","zip_code":"94105","city":"San Francisco","state_code":"CA","country_code":"USA","latitude":37.7797255,"longitude":-122.4020593,"Geolocation":{"type":"Point","coordinates":[-122.4020593,37.7797255]}},{"index":12,"name":"Navara","number_of_employees":80,"description":"Navara Headquarter","address1":"Planetenbaan 26","address2":"","zip_code":"3606 AK","city":"Maarssen","state_code":null,"country_code":"NLD","latitude":52.126616,"longitude":5.038078,"Geolocation":{"type":"Point","coordinates":[5.038078,52.126616]}},{"index":13,"name":"Qualvu","number_of_employees":80,"description":"Corporate Headquarters","address1":"12039 W Alameda Pkwy","address2":"#Z-2","zip_code":"80228","city":"Lakewood","state_code":"CO","country_code":"USA","latitude":39.661171,"longitude":-105.352174,"Geolocation":{"type":"Point","coordinates":[-105.352174,39.661171]}},{"index":14,"name":"Engagement Systems","number_of_employees":80,"description":"Engagement Systems","address1":"8300 NE Underground Dr.","address2":"Pillar 122","zip_code":"64161","city":"Kansas City","state_code":"MO","country_code":"USA","latitude":39.156427,"longitude":-94.483334,"Geolocation":{"type":"Point","coordinates":[-94.483334,39.156427]}},{"index":15,"name":"Clearleap","number_of_employees":75,"description":"Atlanta Headquarters","address1":"3090 Premiere Parkway","address2":"Suite 400","zip_code":"30097","city":"Duluth","state_code":"GA","country_code":"USA","latitude":34.070164,"longitude":-84.058708,"Geolocation":{"type":"Point","coordinates":[-84.058708,34.070164]}},{"index":16,"name":"Sojern","number_of_employees":75,"description":"Corporate Headquarters","address1":"580 Howard Street","address2":"","zip_code":"94105","city":"San Francisco","state_code":"CA","country_code":"USA","latitude":41.238038,"longitude":-96.183033,"Geolocation":{"type":"Point","coordinates":[-96.183033,41.238038]}},{"index":17,"name":"Polyvore","number_of_employees":73,"description":"","address1":"","address2":"","zip_code":"","city":"Mountain View","state_code":"CA","country_code":"USA","latitude":37.386175,"longitude":-122.083487,"Geolocation":{"type":"Point","coordinates":[-122.083487,37.386175]}},{"index":18,"name":"YUPPTV","number_of_employees":70,"description":"OTT Video Solutions","address1":"710 Ashepoint Way","address2":"","zip_code":"30004","city":"Alpharetta","state_code":"GA","country_code":"USA","latitude":17.415429,"longitude":78.434422,"Geolocation":{"type":"Point","coordinates":[78.434422,17.415429]}},{"index":19,"name":"NewsCred","number_of_employees":70,"description":"New York Office","address1":"27 W 24th Street, Suite 202","address2":"","zip_code":"10010","city":"New York","state_code":"NY","country_code":"USA","latitude":46.223157,"longitude":6.124424,"Geolocation":{"type":"Point","coordinates":[6.124424,46.223157]}},{"index":20,"name":"Videoplaza","number_of_employees":70,"description":"London HQ","address1":"Watchmaker Court","address2":"33 St Johns Lane","zip_code":"EC1M 4DB","city":"London","state_code":null,"country_code":"GBR","latitude":51.5212481,"longitude":-0.1020894,"Geolocation":{"type":"Point","coordinates":[-0.1020894,51.5212481]}},{"index":21,"name":"Meteor Games","number_of_employees":70,"description":"","address1":"","address2":"","zip_code":"90210","city":"Beverly Hills","state_code":"CA","country_code":"USA","latitude":34.09316,"longitude":-118.378335,"Geolocation":{"type":"Point","coordinates":[-118.378335,34.09316]}},{"index":22,"name":"Elevance Renewable Sciences","number_of_employees":68,"description":"Elevance Renewable","address1":"2501 Davey Road","address2":"","zip_code":"60517","city":"Woodridge","state_code":"IL","country_code":"USA","latitude":41.6750038,"longitude":-88.0642145,"Geolocation":{"type":"Point","coordinates":[-88.0642145,41.6750038]}},{"index":23,"name":"Bizo","number_of_employees":66,"description":"Corp HQ","address1":"225 Bush St.","address2":"Suite #1150","zip_code":"94104","city":"San Francisco","state_code":"CA","country_code":"USA","latitude":37.7911186,"longitude":-122.4011706,"Geolocation":{"type":"Point","coordinates":[-122.4011706,37.7911186]}},{"index":24,"name":"GreenNote","number_of_employees":65,"description":"","address1":"","address2":"","zip_code":"","city":"Mather","state_code":"CA","country_code":"USA","latitude":37.492685,"longitude":-122.227765,"Geolocation":{"type":"Point","coordinates":[-122.227765,37.492685]}},{"index":25,"name":"Lolapps","number_of_employees":65,"description":"","address1":"116 New Montgomery","address2":"","zip_code":"94105","city":"San Francisco","state_code":"CA","country_code":"USA","latitude":37.7870923,"longitude":-122.3999719,"Geolocation":{"type":"Point","coordinates":[-122.3999719,37.7870923]}},{"index":26,"name":"Lolapps","number_of_employees":65,"description":"","address1":"116 New Montgomery","address2":"","zip_code":"94105","city":"San Francisco","state_code":"CA","country_code":"USA","latitude":37.7870923,"longitude":-122.3999719,"Geolocation":{"type":"Point","coordinates":[-122.3999719,37.7870923]}},{"index":27,"name":"Automatic","number_of_employees":65,"description":"Automatic Partners","address1":"8105 Irvine Center Drive","address2":"Suite 900","zip_code":"92618","city":"Irvine","state_code":"CA","country_code":"USA","latitude":33.65042,"longitude":-117.747055,"Geolocation":{"type":"Point","coordinates":[-117.747055,33.65042]}},{"index":28,"name":"New Relic","number_of_employees":63,"description":"","address1":"","address2":"","zip_code":"","city":"San Francisco","state_code":"CA","country_code":"USA","latitude":37.269175,"longitude":-119.306607,"Geolocation":{"type":"Point","coordinates":[-119.306607,37.269175]}},{"index":29,"name":"Jivox","number_of_employees":60,"description":"Jivox US Headquarters","address1":"333 Twin Dolphin Drive","address2":"","zip_code":"94065","city":"Redwood City","state_code":"CA","country_code":"USA","latitude":37.555962,"longitude":-122.288006,"Geolocation":{"type":"Point","coordinates":[-122.288006,37.555962]}},{"index":30,"name":"Medialets","number_of_employees":60,"description":"","address1":"","address2":"","zip_code":"","city":"New York","state_code":"NY","country_code":"USA","latitude":40.756054,"longitude":-73.986951,"Geolocation":{"type":"Point","coordinates":[-73.986951,40.756054]}},{"index":31,"name":"Deal4Loans","number_of_employees":60,"description":"","address1":"128, Ground Floor,","address2":"Priya Enclave","zip_code":"110092","city":"Delhi","state_code":null,"country_code":"IND","latitude":28.4404308,"longitude":77.0789194,"Geolocation":{"type":"Point","coordinates":[77.0789194,28.4404308]}},{"index":32,"name":"AssureSign","number_of_employees":60,"description":"Corporate Office","address1":"220 E. Central Parkway","address2":"Suite 3000","zip_code":"32701","city":"Altamonte Springs","state_code":"FL","country_code":"USA","latitude":28.672321,"longitude":-81.384939,"Geolocation":{"type":"Point","coordinates":[-81.384939,28.672321]}},{"index":33,"name":"SCVNGR","number_of_employees":60,"description":"SCVNGR","address1":"One Congress","address2":"Suite 111","zip_code":"021114","city":"Boston","state_code":"MA","country_code":"USA","latitude":42.3406534,"longitude":-71.0680027,"Geolocation":{"type":"Point","coordinates":[-71.0680027,42.3406534]}},{"index":34,"name":"Adeptol","number_of_employees":60,"description":"HeadOffice","address1":"3333 Bowers Avenue, Suite 130","address2":"","zip_code":"95054","city":"Santa Clara","state_code":"CA","country_code":"USA","latitude":37.381341,"longitude":-121.977065,"Geolocation":{"type":"Point","coordinates":[-121.977065,37.381341]}},{"index":35,"name":"StyleCaster","number_of_employees":60,"description":"","address1":"49 W 27th St Uppr A","address2":"","zip_code":"10001-6936","city":"New York City","state_code":"NY","country_code":"USA","latitude":40.7450497,"longitude":-73.9900984,"Geolocation":{"type":"Point","coordinates":[-73.9900984,40.7450497]}},{"index":36,"name":"GumGum","number_of_employees":55,"description":"GumGum","address1":"1207 4th Street","address2":"Suite 400A","zip_code":"90401","city":"Santa Monica","state_code":"CA","country_code":"USA","latitude":34.052187,"longitude":-118.243425,"Geolocation":{"type":"Point","coordinates":[-118.243425,34.052187]}},{"index":37,"name":"Smule","number_of_employees":55,"description":"Smule HQ","address1":"139 Townsend Street","address2":"Suite 200","zip_code":"94107","city":"San Francisco","state_code":"CA","country_code":"USA","latitude":37.779624,"longitude":-122.391236,"Geolocation":{"type":"Point","coordinates":[-122.391236,37.779624]}},{"index":38,"name":"TVGla","number_of_employees":55,"description":"Los Angeles","address1":"5340 Alla Road Suite 100","address2":"","zip_code":"90066","city":"Los Angeles","state_code":"CA","country_code":"USA","latitude":33.988687,"longitude":-118.439532,"Geolocation":{"type":"Point","coordinates":[-118.439532,33.988687]}},{"index":39,"name":"Huddler","number_of_employees":52,"description":"HQ","address1":"525 Market St.","address2":"Suite 200","zip_code":"94105","city":"San Francisco","state_code":"CA","country_code":"USA","latitude":37.7893215,"longitude":-122.4013624,"Geolocation":{"type":"Point","coordinates":[-122.4013624,37.7893215]}},{"index":40,"name":"3Degrees","number_of_employees":52,"description":"Headquarters","address1":"38 Keyes Avenue","address2":"Suite 300","zip_code":"94129","city":"San Francisco","state_code":"CA","country_code":"USA","latitude":37.7968492,"longitude":-122.457623,"Geolocation":{"type":"Point","coordinates":[-122.457623,37.7968492]}},{"index":41,"name":"Scribd","number_of_employees":50,"description":"HQ","address1":"539 Bryant Street","address2":"","zip_code":"94107","city":"San Francisco","state_code":"CA","country_code":"USA","latitude":37.789634,"longitude":-122.404052,"Geolocation":{"type":"Point","coordinates":[-122.404052,37.789634]}},{"index":42,"name":"boo-box","number_of_employees":50,"description":"boo-land","address1":"Av. Faria Lima, 2631","address2":"Pinheiros","zip_code":"","city":"Sao Paulo","state_code":null,"country_code":"BRA","latitude":-23.558584,"longitude":-46.679287,"Geolocation":{"type":"Point","coordinates":[-46.679287,-23.558584]}},{"index":43,"name":"Crunchyroll","number_of_employees":50,"description":"","address1":"","address2":"","zip_code":"94105","city":"San Francisco","state_code":"CA","country_code":"USA","latitude":37.781265,"longitude":-122.393229,"Geolocation":{"type":"Point","coordinates":[-122.393229,37.781265]}},{"index":44,"name":"PerfSpot","number_of_employees":50,"description":"","address1":"4800 N. Scottsdale Rd.","address2":"","zip_code":"00202","city":"Scottsdale","state_code":"CA","country_code":"EGY","latitude":33.5060338,"longitude":-111.9261618,"Geolocation":{"type":"Point","coordinates":[-111.9261618,33.5060338]}},{"index":45,"name":"Geekdom","number_of_employees":50,"description":"Headquarters","address1":"Level 150 George Street","address2":"","zip_code":"NSW 2000","city":"Sydney","state_code":null,"country_code":"AUS","latitude":-33.860404,"longitude":151.208584,"Geolocation":{"type":"Point","coordinates":[151.208584,-33.860404]}},{"index":46,"name":"Ocarina Networks","number_of_employees":50,"description":"Headquarters","address1":"42 Airport Parkway","address2":"","zip_code":"95110","city":"San Jose","state_code":"CA","country_code":"USA","latitude":37.371056,"longitude":-121.920558,"Geolocation":{"type":"Point","coordinates":[-121.920558,37.371056]}},{"index":47,"name":"Inuvo","number_of_employees":50,"description":"Clearwater, FL","address1":"15500 Lightwave Dr.","address2":"Suite 300","zip_code":"33760","city":"Clearwater","state_code":"FL","country_code":"USA","latitude":27.913011,"longitude":-82.702449,"Geolocation":{"type":"Point","coordinates":[-82.702449,27.913011]}},{"index":48,"name":"Inuvo","number_of_employees":50,"description":"Clearwater, FL","address1":"15500 Lightwave Dr.","address2":"Suite 300","zip_code":"33760","city":"Clearwater","state_code":"FL","country_code":"USA","latitude":27.913011,"longitude":-82.702449,"Geolocation":{"type":"Point","coordinates":[-82.702449,27.913011]}},{"index":49,"name":"Wishabi","number_of_employees":50,"description":"Wishabi HQ","address1":"302 The East Mall","address2":"Floor 5","zip_code":"M9B 6C7","city":"Toronto","state_code":null,"country_code":"CAN","latitude":43.644678,"longitude":-79.567221,"Geolocation":{"type":"Point","coordinates":[-79.567221,43.644678]}},{"index":50,"name":"Webedia","number_of_employees":50,"description":"","address1":"","address2":"","zip_code":"","city":"Paris","state_code":null,"country_code":"FRA","latitude":48.856614,"longitude":2.3522219,"Geolocation":{"type":"Point","coordinates":[2.3522219,48.856614]}},{"index":51,"name":"Pardot","number_of_employees":50,"description":"","address1":"950 E. Paces Ferry Rd.","address2":"Sute 3300","zip_code":"30326","city":"Atlanta","state_code":"GA","country_code":"USA","latitude":33.84662,"longitude":-84.3565171,"Geolocation":{"type":"Point","coordinates":[-84.3565171,33.84662]}},{"index":52,"name":"EcoVadis","number_of_employees":50,"description":"Paris","address1":"4 rue du Faubourg Montmartre","address2":"","zip_code":"75009","city":"PARIS","state_code":null,"country_code":"FRA","latitude":48.8545738,"longitude":2.3216223,"Geolocation":{"type":"Point","coordinates":[2.3216223,48.8545738]}},{"index":53,"name":"Green Apple Media","number_of_employees":50,"description":"Mother Ship","address1":"14 - 16 Lord Edward St","address2":"Dublin 2","zip_code":"D2","city":"Dublin","state_code":null,"country_code":"IRL","latitude":53.3438298,"longitude":-6.2689465,"Geolocation":{"type":"Point","coordinates":[-6.2689465,53.3438298]}},{"index":54,"name":"Sysomos","number_of_employees":50,"description":"","address1":"326 Adelaide Street West, Suite 600","address2":"","zip_code":"M5V 1R3","city":"Toronto","state_code":null,"country_code":"CAN","latitude":43.65508,"longitude":-79.3979364,"Geolocation":{"type":"Point","coordinates":[-79.3979364,43.65508]}},{"index":55,"name":"Ginger Software","number_of_employees":50,"description":"","address1":"405 Waltham St","address2":"# 371","zip_code":"02421","city":"Lexington","state_code":"MA","country_code":"USA","latitude":42.4352222,"longitude":-71.2344601,"Geolocation":{"type":"Point","coordinates":[-71.2344601,42.4352222]}},{"index":56,"name":"AppZero","number_of_employees":50,"description":"HQ","address1":"300 Brickston Sq.","address2":"Suite 201","zip_code":"01810","city":"Andover","state_code":"MA","country_code":"USA","latitude":42.6751888,"longitude":-71.1469003,"Geolocation":{"type":"Point","coordinates":[-71.1469003,42.6751888]}},{"index":57,"name":"IGLOO Software","number_of_employees":50,"description":"Headquarter","address1":"22 Frederick Street","address2":"6 Floor","zip_code":"N2H 6M6","city":"Kitchener","state_code":null,"country_code":"CAN","latitude":43.4496954,"longitude":-80.487328,"Geolocation":{"type":"Point","coordinates":[-80.487328,43.4496954]}},{"index":58,"name":"Chartbeat","number_of_employees":50,"description":"","address1":"826 Broadway","address2":"6th Floor","zip_code":"10003","city":"New York","state_code":"NY","country_code":"USA","latitude":40.73343,"longitude":-73.990967,"Geolocation":{"type":"Point","coordinates":[-73.990967,40.73343]}},{"index":59,"name":"Solix Biofuels","number_of_employees":50,"description":"Solix Biofuels","address1":"430 B. North College Ave.","address2":"","zip_code":"80524","city":"Fort Collins","state_code":"CO","country_code":"USA","latitude":40.5932386,"longitude":-105.0766501,"Geolocation":{"type":"Point","coordinates":[-105.0766501,40.5932386]}},{"index":60,"name":"Steppy Frog Design Studio","number_of_employees":50,"description":"Steppy Frog Design Studio","address1":"No:T-53, T-Block, 9th Street","address2":"Anna Nagar West","zip_code":"600040","city":"Chennai","state_code":null,"country_code":"IND","latitude":13.1115592,"longitude":80.226749,"Geolocation":{"type":"Point","coordinates":[80.226749,13.1115592]}},{"index":61,"name":"Struq","number_of_employees":50,"description":"London HQ","address1":"5th Floor Waverley House","address2":"7-11 Noel Street","zip_code":"W1F 8GQ","city":"London","state_code":null,"country_code":"GBR","latitude":51.5152023,"longitude":-0.1366861,"Geolocation":{"type":"Point","coordinates":[-0.1366861,51.5152023]}},{"index":62,"name":"Testplant","number_of_employees":50,"description":"TestPlant","address1":"6 Snow Hill","address2":"","zip_code":"EC1A 2AY","city":"London","state_code":null,"country_code":"GBR","latitude":51.517356,"longitude":-0.1037742,"Geolocation":{"type":"Point","coordinates":[-0.1037742,51.517356]}},{"index":63,"name":"ALOT","number_of_employees":50,"description":"","address1":"143 Varick Street","address2":"","zip_code":"10013","city":"New York","state_code":"NY","country_code":"USA","latitude":40.72616,"longitude":-74.006023,"Geolocation":{"type":"Point","coordinates":[-74.006023,40.72616]}},{"index":64,"name":"FotoDesk","number_of_employees":45,"description":"HQ","address1":"Gueterstrasse 99","address2":"","zip_code":"4053","city":"Basel","state_code":null,"country_code":"CHE","latitude":46.465626,"longitude":6.845464,"Geolocation":{"type":"Point","coordinates":[6.845464,46.465626]}},{"index":65,"name":"OrgSync","number_of_employees":45,"description":"Headquarters","address1":"13140 Coit Rd, Suite 405","address2":"","zip_code":"75240","city":"Dallas","state_code":"TX","country_code":"USA","latitude":30.268735,"longitude":-97.745209,"Geolocation":{"type":"Point","coordinates":[-97.745209,30.268735]}},{"index":66,"name":"Optify","number_of_employees":45,"description":"Optify HQ","address1":"710 2nd Avenue","address2":"Suite 840","zip_code":"98104","city":"Seattle","state_code":"WA","country_code":"USA","latitude":47.603364,"longitude":-122.333359,"Geolocation":{"type":"Point","coordinates":[-122.333359,47.603364]}},{"index":67,"name":"Busca Corp","number_of_employees":45,"description":"Busca Corp. USA","address1":"7590 Fay Ave. Suite 506","address2":"","zip_code":"92037","city":"La Jolla","state_code":"CA","country_code":"USA","latitude":32.841791,"longitude":-117.274602,"Geolocation":{"type":"Point","coordinates":[-117.274602,32.841791]}},{"index":68,"name":"Topsy Labs","number_of_employees":45,"description":"Headquarters","address1":"140 Second St","address2":"6th Floor","zip_code":"94105","city":"San Francisco","state_code":"CA","country_code":"USA","latitude":37.775196,"longitude":-122.419204,"Geolocation":{"type":"Point","coordinates":[-122.419204,37.775196]}},{"index":69,"name":"Tiny Speck","number_of_employees":45,"description":"","address1":"163 Hastings St W","address2":"","zip_code":"BC V6B 1H5","city":"Vancouver","state_code":null,"country_code":"CAN","latitude":49.2824551,"longitude":-123.109217,"Geolocation":{"type":"Point","coordinates":[-123.109217,49.2824551]}},{"index":70,"name":"Disqus","number_of_employees":43,"description":"","address1":"301 Howard","address2":"3rd Floor","zip_code":"94105","city":"San Francisco","state_code":"CA","country_code":"USA","latitude":37.786906,"longitude":-122.397672,"Geolocation":{"type":"Point","coordinates":[-122.397672,37.786906]}},{"index":71,"name":"Moviepilot","number_of_employees":43,"description":"German Headquarters","address1":"Mehringdamm 33","address2":"","zip_code":"10961","city":"Berlin","state_code":null,"country_code":"DEU","latitude":52.4947266,"longitude":13.398504,"Geolocation":{"type":"Point","coordinates":[13.398504,52.4947266]}},{"index":72,"name":"Double Encore","number_of_employees":42,"description":"Double Encore, Inc","address1":"820 16th Street","address2":"Suite 700","zip_code":"80202","city":"Denver","state_code":"CO","country_code":"USA","latitude":39.69263,"longitude":-104.955012,"Geolocation":{"type":"Point","coordinates":[-104.955012,39.69263]}},{"index":73,"name":"StarWind Software","number_of_employees":42,"description":"","address1":"40 Mall Rd.","address2":"","zip_code":"01803","city":"Burlington","state_code":"MA","country_code":"USA","latitude":42.487232,"longitude":-71.204372,"Geolocation":{"type":"Point","coordinates":[-71.204372,42.487232]}},{"index":74,"name":"SpaBooker","number_of_employees":42,"description":"SpaBooker Head Office","address1":"22 Cortlandt St Floor 18","address2":"","zip_code":"10007","city":"New York","state_code":"NY","country_code":"USA","latitude":40.738567,"longitude":-73.987199,"Geolocation":{"type":"Point","coordinates":[-73.987199,40.738567]}},{"index":75,"name":"Mahalo","number_of_employees":40,"description":"","address1":"3525 Eastham Dr.","address2":"","zip_code":"90232","city":"Culver City","state_code":"CA","country_code":"USA","latitude":34.017606,"longitude":-118.487267,"Geolocation":{"type":"Point","coordinates":[-118.487267,34.017606]}},{"index":76,"name":"GoingOn","number_of_employees":40,"description":"GoingOn Networks, Inc.","address1":"450 Sansome Street","address2":"12th Floor","zip_code":"94111","city":"San Francisco","state_code":"CA","country_code":"USA","latitude":37.782263,"longitude":-122.392142,"Geolocation":{"type":"Point","coordinates":[-122.392142,37.782263]}},{"index":77,"name":"Docstoc","number_of_employees":40,"description":"","address1":"409 S Santa Monica Blvd","address2":"Suite 2A","zip_code":"90401","city":"Santa Monica","state_code":"CA","country_code":"USA","latitude":34.018275,"longitude":-118.495025,"Geolocation":{"type":"Point","coordinates":[-118.495025,34.018275]}},{"index":78,"name":"AdScale","number_of_employees":40,"description":"Corporate Headquarters","address1":"Ungererstrasse 40","address2":"","zip_code":"80802","city":"Munich","state_code":null,"country_code":"DEU","latitude":48.1654212,"longitude":11.5893956,"Geolocation":{"type":"Point","coordinates":[11.5893956,48.1654212]}},{"index":79,"name":"Zopim","number_of_employees":40,"description":"","address1":"8 Prince Georges Park","address2":"Extension Block","zip_code":"118407","city":"Singapore","state_code":null,"country_code":"SGP","latitude":1.290801,"longitude":103.7807403,"Geolocation":{"type":"Point","coordinates":[103.7807403,1.290801]}},{"index":80,"name":"Cognitive Match","number_of_employees":40,"description":"London","address1":"33\/14 Great Saint Thomas Apostle","address2":"","zip_code":"EC4V 2BB","city":"London","state_code":null,"country_code":"GBR","latitude":51.5119418,"longitude":-0.0936688,"Geolocation":{"type":"Point","coordinates":[-0.0936688,51.5119418]}},{"index":81,"name":"tracx","number_of_employees":40,"description":"HQ","address1":"104 West 27th Street,","address2":"3rd Floor","zip_code":"10001","city":"New York","state_code":"NY","country_code":"USA","latitude":32.0554,"longitude":34.7595,"Geolocation":{"type":"Point","coordinates":[34.7595,32.0554]}},{"index":82,"name":"Servo Software","number_of_employees":40,"description":"World Headquarters","address1":"1900 S. Norfolk","address2":"Suite 350","zip_code":"94403","city":"San Mateo","state_code":"CA","country_code":"USA","latitude":37.552262,"longitude":-122.292146,"Geolocation":{"type":"Point","coordinates":[-122.292146,37.552262]}},{"index":83,"name":"Yoostar","number_of_employees":40,"description":"Main Office","address1":"","address2":"","zip_code":"","city":"New York","state_code":"NY","country_code":"USA","latitude":40.756054,"longitude":-73.986951,"Geolocation":{"type":"Point","coordinates":[-73.986951,40.756054]}},{"index":84,"name":"The Resumator","number_of_employees":40,"description":"","address1":"","address2":"","zip_code":"","city":"Pittsburgh","state_code":"PA","country_code":"USA","latitude":40.438423,"longitude":-80.001933,"Geolocation":{"type":"Point","coordinates":[-80.001933,40.438423]}},{"index":85,"name":"InteliCloud","number_of_employees":40,"description":"Corporate Office","address1":"895 Dove Street","address2":"3rd Floor","zip_code":"92660","city":"Newport Beach","state_code":"CA","country_code":"USA","latitude":33.658546,"longitude":-117.86595,"Geolocation":{"type":"Point","coordinates":[-117.86595,33.658546]}},{"index":86,"name":"Intridea","number_of_employees":37,"description":"","address1":"1020 16th Street NW","address2":"7th Floor","zip_code":"20006","city":"Washington, DC","state_code":"DC","country_code":"USA","latitude":38.901279,"longitude":-77.043194,"Geolocation":{"type":"Point","coordinates":[-77.043194,38.901279]}},{"index":87,"name":"Livemocha","number_of_employees":35,"description":"","address1":"1011 Western Ave","address2":"Ste 1000","zip_code":"98104","city":"Seattle","state_code":"WA","country_code":"USA","latitude":47.6399006,"longitude":-122.1914274,"Geolocation":{"type":"Point","coordinates":[-122.1914274,47.6399006]}},{"index":88,"name":"ModiFace","number_of_employees":35,"description":"","address1":"77 Bloor Street West Unit 1107","address2":"","zip_code":"M5S 1M2","city":"Toronto","state_code":null,"country_code":"CAN","latitude":43.666953,"longitude":-79.388279,"Geolocation":{"type":"Point","coordinates":[-79.388279,43.666953]}},{"index":89,"name":"Mad Mimi","number_of_employees":35,"description":"","address1":"172 Fifth Avenue","address2":"Suite 131","zip_code":"11215","city":"Brooklyn","state_code":"NY","country_code":"USA","latitude":40.66509,"longitude":-73.980306,"Geolocation":{"type":"Point","coordinates":[-73.980306,40.66509]}},{"index":90,"name":"PurpleTrail","number_of_employees":35,"description":"Corporate Headquarters","address1":"15400 SE 30th Pl","address2":"Suite #105","zip_code":"98004","city":"Bellevue","state_code":"WA","country_code":"USA","latitude":47.584224,"longitude":-122.19292,"Geolocation":{"type":"Point","coordinates":[-122.19292,47.584224]}},{"index":91,"name":"Jinni","number_of_employees":35,"description":"","address1":"","address2":"","zip_code":"","city":"Tel Aviv","state_code":null,"country_code":"ISR","latitude":32.0554,"longitude":34.7595,"Geolocation":{"type":"Point","coordinates":[34.7595,32.0554]}},{"index":92,"name":"Sometrics","number_of_employees":35,"description":"","address1":"","address2":"","zip_code":"90245","city":"El Segundo","state_code":"CA","country_code":"USA","latitude":34.048857,"longitude":-118.251343,"Geolocation":{"type":"Point","coordinates":[-118.251343,34.048857]}},{"index":93,"name":"JustMeans","number_of_employees":35,"description":null,"address1":"100 Borough High Street","address2":"","zip_code":"SE1 1YB","city":"London","state_code":null,"country_code":"GBR","latitude":51.503188,"longitude":-0.091784,"Geolocation":{"type":"Point","coordinates":[-0.091784,51.503188]}},{"index":94,"name":"Spoonflower","number_of_employees":35,"description":"","address1":"2810 Meridian Pkwy","address2":"Suite 130","zip_code":"27713","city":"Durham","state_code":"NC","country_code":"USA","latitude":36.0966,"longitude":-79.266246,"Geolocation":{"type":"Point","coordinates":[-79.266246,36.0966]}},{"index":95,"name":"Openfilm","number_of_employees":35,"description":"Headquarters","address1":"1450 S Miami Ave","address2":"","zip_code":"33130","city":"Miami","state_code":"FL","country_code":"USA","latitude":25.887462,"longitude":-80.166155,"Geolocation":{"type":"Point","coordinates":[-80.166155,25.887462]}},{"index":96,"name":"Visuamobile","number_of_employees":35,"description":"Offices","address1":"58, rue du Faubourg Poissonni\u00c3\u00a8re","address2":"","zip_code":"75010","city":"Paris","state_code":null,"country_code":"FRA","latitude":48.8691369,"longitude":2.3602202,"Geolocation":{"type":"Point","coordinates":[2.3602202,48.8691369]}},{"index":97,"name":"RankAbove","number_of_employees":35,"description":"Headquarters","address1":"91 HaHashmonaim","address2":"First Floor","zip_code":"","city":"Tel Aviv","state_code":null,"country_code":"ISR","latitude":32.0695889,"longitude":34.7836788,"Geolocation":{"type":"Point","coordinates":[34.7836788,32.0695889]}},{"index":98,"name":"expressor software","number_of_employees":35,"description":"Headquarters","address1":"1 New England Executive Park","address2":"","zip_code":"01803","city":"Burlington","state_code":"MA","country_code":"USA","latitude":42.485102,"longitude":-71.211568,"Geolocation":{"type":"Point","coordinates":[-71.211568,42.485102]}},{"index":99,"name":"mydeco","number_of_employees":35,"description":"","address1":"Newcombe House","address2":"45 Notting Hill Gate","zip_code":"W11 3LQ","city":"London","state_code":null,"country_code":"GBR","latitude":51.518101,"longitude":-0.468617,"Geolocation":{"type":"Point","coordinates":[-0.468617,51.518101]}},{"index":100,"name":"ExpertHub","number_of_employees":35,"description":"","address1":"7031 Koll Center Parkway","address2":"Suite 260","zip_code":"94566","city":"Pleasanton","state_code":"CA","country_code":"USA","latitude":37.6621228,"longitude":-121.9009329,"Geolocation":{"type":"Point","coordinates":[-121.9009329,37.6621228]}},{"index":101,"name":"Simulmedia","number_of_employees":35,"description":"","address1":"670 Broadway","address2":"Second Floor","zip_code":"10012","city":"New York","state_code":"NY","country_code":"USA","latitude":40.727216,"longitude":-73.994797,"Geolocation":{"type":"Point","coordinates":[-73.994797,40.727216]}},{"index":102,"name":"SkyFuel","number_of_employees":35,"description":"SkyFuel Headquarters","address1":"18300 West Highway 72","address2":"","zip_code":"80007","city":"Arvada","state_code":"CO","country_code":"USA","latitude":39.862942,"longitude":-105.206509,"Geolocation":{"type":"Point","coordinates":[-105.206509,39.862942]}},{"index":103,"name":"Glogster","number_of_employees":35,"description":"GLOGSTER EC, INC. (Sales)","address1":"800 Boylston St.","address2":"","zip_code":"02119","city":"Boston","state_code":"MA","country_code":"USA","latitude":42.35892,"longitude":-71.05781,"Geolocation":{"type":"Point","coordinates":[-71.05781,42.35892]}},{"index":104,"name":"Spectrum Bridge","number_of_employees":32,"description":"Headquarters","address1":"1064 Greenwood Boulvard","address2":"","zip_code":"32736","city":"Lake Mary","state_code":"FL","country_code":"USA","latitude":28.757202,"longitude":-81.334464,"Geolocation":{"type":"Point","coordinates":[-81.334464,28.757202]}},{"index":105,"name":"Spectrum Bridge","number_of_employees":32,"description":"Headquarters","address1":"1064 Greenwood Boulvard","address2":"","zip_code":"32736","city":"Lake Mary","state_code":"FL","country_code":"USA","latitude":28.757202,"longitude":-81.334464,"Geolocation":{"type":"Point","coordinates":[-81.334464,28.757202]}},{"index":106,"name":"Gridstore","number_of_employees":31,"description":"Gridstore","address1":"1975 Lndings Drive","address2":"","zip_code":"94043","city":"Mountain View","state_code":"CA","country_code":"USA","latitude":37.4189073,"longitude":-122.0884286,"Geolocation":{"type":"Point","coordinates":[-122.0884286,37.4189073]}},{"index":107,"name":"Fixya","number_of_employees":30,"description":"","address1":"One Franklin Parkway","address2":"Building 910, Suite 110","zip_code":"94401","city":"San Mateo","state_code":"CA","country_code":"USA","latitude":37.566879,"longitude":-122.323895,"Geolocation":{"type":"Point","coordinates":[-122.323895,37.566879]}},{"index":108,"name":"Webnode","number_of_employees":30,"description":"","address1":"U vodarny 2","address2":"","zip_code":"616 00","city":"Brno","state_code":null,"country_code":"CZE","latitude":49.2259017,"longitude":16.5692822,"Geolocation":{"type":"Point","coordinates":[16.5692822,49.2259017]}},{"index":109,"name":"Zemanta","number_of_employees":30,"description":"London Office","address1":"107 Cheapside","address2":"","zip_code":"EC2V 6DY","city":"London","state_code":null,"country_code":"GBR","latitude":51.5141566,"longitude":-0.0934254,"Geolocation":{"type":"Point","coordinates":[-0.0934254,51.5141566]}},{"index":110,"name":"Danogo","number_of_employees":30,"description":null,"address1":"PO Box 765","address2":"","zip_code":"10524","city":"Garrison","state_code":"NY","country_code":"USA","latitude":41.378031,"longitude":-73.925194,"Geolocation":{"type":"Point","coordinates":[-73.925194,41.378031]}},{"index":111,"name":"JumpForward","number_of_employees":30,"description":"","address1":"112 S Sangmon Ave","address2":"3nd Floor","zip_code":"60607","city":"Chicago","state_code":"IL","country_code":"USA","latitude":41.857204,"longitude":-87.623923,"Geolocation":{"type":"Point","coordinates":[-87.623923,41.857204]}},{"index":112,"name":"Samfind","number_of_employees":30,"description":"World Headquarters","address1":"","address2":"","zip_code":"90035","city":"Los Angeles","state_code":"CA","country_code":"USA","latitude":34.052107,"longitude":-118.385271,"Geolocation":{"type":"Point","coordinates":[-118.385271,34.052107]}},{"index":113,"name":"Burt","number_of_employees":30,"description":"","address1":"Karl Gustavsgatan 1A","address2":"","zip_code":"41125","city":"Gothenburg","state_code":null,"country_code":"SWE","latitude":59.337864,"longitude":18.036587,"Geolocation":{"type":"Point","coordinates":[18.036587,59.337864]}},{"index":114,"name":"EdigmaHealthCare","number_of_employees":30,"description":"Headquarters","address1":"Av. da Republica, 49 D","address2":"","zip_code":"1050-188","city":"Lisbon","state_code":null,"country_code":"PRT","latitude":38.738542,"longitude":-9.146273,"Geolocation":{"type":"Point","coordinates":[-9.146273,38.738542]}},{"index":115,"name":"Inadco","number_of_employees":30,"description":"","address1":"445 Sherman Avenue","address2":"","zip_code":"94306","city":"Palo Alto","state_code":"CA","country_code":"USA","latitude":41.889832,"longitude":-87.626718,"Geolocation":{"type":"Point","coordinates":[-87.626718,41.889832]}},{"index":116,"name":"Burt","number_of_employees":30,"description":"","address1":"Karl Gustavsgatan 1A","address2":"","zip_code":"41125","city":"Gothenburg","state_code":null,"country_code":"SWE","latitude":59.337864,"longitude":18.036587,"Geolocation":{"type":"Point","coordinates":[18.036587,59.337864]}},{"index":117,"name":"EdigmaHealthCare","number_of_employees":30,"description":"Headquarters","address1":"Av. da Republica, 49 D","address2":"","zip_code":"1050-188","city":"Lisbon","state_code":null,"country_code":"PRT","latitude":38.738542,"longitude":-9.146273,"Geolocation":{"type":"Point","coordinates":[-9.146273,38.738542]}},{"index":118,"name":"Inadco","number_of_employees":30,"description":"","address1":"445 Sherman Avenue","address2":"","zip_code":"94306","city":"Palo Alto","state_code":"CA","country_code":"USA","latitude":41.889832,"longitude":-87.626718,"Geolocation":{"type":"Point","coordinates":[-87.626718,41.889832]}},{"index":119,"name":"Unison Technologies","number_of_employees":30,"description":"Headquarters","address1":"424 W 33rd Street, Suite 410","address2":"","zip_code":"10001","city":"New York","state_code":"NY","country_code":"USA","latitude":40.7645772,"longitude":-73.9799007,"Geolocation":{"type":"Point","coordinates":[-73.9799007,40.7645772]}},{"index":120,"name":"imFORZA Marketing","number_of_employees":30,"description":"HQ","address1":"235 California Street","address2":"","zip_code":"90245","city":"El Segundo","state_code":"CA","country_code":"USA","latitude":33.92854,"longitude":-118.397818,"Geolocation":{"type":"Point","coordinates":[-118.397818,33.92854]}},{"index":121,"name":"Ecreative Internet Marketing","number_of_employees":30,"description":"Minneapolis Headquarters","address1":"13220 County Rd 6","address2":"","zip_code":"55441","city":"Plymouth","state_code":"MN","country_code":"USA","latitude":44.997698,"longitude":-93.448401,"Geolocation":{"type":"Point","coordinates":[-93.448401,44.997698]}},{"index":122,"name":"Trackset","number_of_employees":30,"description":"","address1":"","address2":"","zip_code":"","city":"Pisa","state_code":null,"country_code":"ITA","latitude":43.7161354,"longitude":10.3965843,"Geolocation":{"type":"Point","coordinates":[10.3965843,43.7161354]}},{"index":123,"name":"FacebookLicious!","number_of_employees":30,"description":"Facebooklicious Office.","address1":"42 Paisley Street,","address2":"","zip_code":"19701","city":"Bear","state_code":"DE","country_code":"USA","latitude":39.612223,"longitude":-75.696706,"Geolocation":{"type":"Point","coordinates":[-75.696706,39.612223]}},{"index":124,"name":"Mytopia","number_of_employees":29,"description":"","address1":"","address2":"","zip_code":"94301","city":"Palo Alto","state_code":"CA","country_code":"USA","latitude":34.007967,"longitude":-118.489681,"Geolocation":{"type":"Point","coordinates":[-118.489681,34.007967]}},{"index":125,"name":"ScreenScape Networks","number_of_employees":29,"description":"Headquarters","address1":"133 Queen St.","address2":"PO Box 291","zip_code":"C1A7K4","city":"Charlottetown","state_code":null,"country_code":"CAN","latitude":46.234315,"longitude":-63.127845,"Geolocation":{"type":"Point","coordinates":[-63.127845,46.234315]}},{"index":126,"name":"clipsync","number_of_employees":28,"description":"","address1":"Pier 33 South Embarcadero","address2":"Suite 201","zip_code":"94111","city":"San Francisco","state_code":"CA","country_code":"USA","latitude":37.2906027,"longitude":-121.9317853,"Geolocation":{"type":"Point","coordinates":[-121.9317853,37.2906027]}},{"index":127,"name":"Tamundo","number_of_employees":28,"description":"","address1":"Oranienburger Str","address2":"","zip_code":"10117","city":"Berlin","state_code":null,"country_code":"DEU","latitude":52.525354,"longitude":13.3913657,"Geolocation":{"type":"Point","coordinates":[13.3913657,52.525354]}},{"index":128,"name":"AdJuggler","number_of_employees":27,"description":"","address1":"5440 Cherokee Avenue, Suite 100","address2":"","zip_code":"22312-2374","city":"Alexandria","state_code":"VA","country_code":"USA","latitude":38.804559,"longitude":-77.164776,"Geolocation":{"type":"Point","coordinates":[-77.164776,38.804559]}},{"index":129,"name":"Zapproved","number_of_employees":27,"description":"Headquarters","address1":"19075 NW Tanasbourne Drive","address2":"Suite 120","zip_code":"97124","city":"Portland","state_code":"OR","country_code":"USA","latitude":45.5251,"longitude":-122.8097,"Geolocation":{"type":"Point","coordinates":[-122.8097,45.5251]}},{"index":130,"name":"Yaika","number_of_employees":26,"description":"Tallinn Office","address1":"Fr.R. Kreutzwaldi 4","address2":"","zip_code":"10120","city":"Tallinn","state_code":null,"country_code":"EST","latitude":59.437214,"longitude":24.768664,"Geolocation":{"type":"Point","coordinates":[24.768664,59.437214]}},{"index":131,"name":"SodaHead","number_of_employees":25,"description":"","address1":"16161 Ventura Blvd.","address2":"Suite C PMB 461","zip_code":"91436","city":"Encino","state_code":"CA","country_code":"USA","latitude":37.269175,"longitude":-119.306607,"Geolocation":{"type":"Point","coordinates":[-119.306607,37.269175]}},{"index":132,"name":"RepairPal","number_of_employees":25,"description":"","address1":"6005 Shellmound St","address2":"Suite 200","zip_code":"94608","city":"Emeryville","state_code":"CA","country_code":"USA","latitude":37.838225,"longitude":-122.296411,"Geolocation":{"type":"Point","coordinates":[-122.296411,37.838225]}},{"index":133,"name":"Cellware","number_of_employees":25,"description":null,"address1":"","address2":"","zip_code":"33435","city":"","state_code":"FL","country_code":"USA","latitude":26.524058,"longitude":-80.064158,"Geolocation":{"type":"Point","coordinates":[-80.064158,26.524058]}},{"index":134,"name":"Crowd Science","number_of_employees":25,"description":"San Jose Headquarters","address1":"1735 Technology Drive","address2":"Suite 780","zip_code":"95110","city":"San Jose","state_code":"CA","country_code":"USA","latitude":37.419041,"longitude":-122.087471,"Geolocation":{"type":"Point","coordinates":[-122.087471,37.419041]}},{"index":135,"name":"webme","number_of_employees":25,"description":"Headquarter","address1":"Richard-Wagner-Stra\u00c3\u0178e 2","address2":"","zip_code":"91054","city":"Erlangen","state_code":null,"country_code":"DEU","latitude":49.596464,"longitude":11.003518,"Geolocation":{"type":"Point","coordinates":[11.003518,49.596464]}},{"index":136,"name":"OpenDrive","number_of_employees":25,"description":"World Headquarters","address1":"228 Hamilton Avenue","address2":"3rd Floor","zip_code":"94301","city":"Palo Alto","state_code":"CA","country_code":"USA","latitude":37.794043,"longitude":-122.39736,"Geolocation":{"type":"Point","coordinates":[-122.39736,37.794043]}},{"index":137,"name":"Call Me Later","number_of_employees":25,"description":"","address1":"5753 nw158 st","address2":"","zip_code":"33014","city":"Miami","state_code":"FL","country_code":"USA","latitude":25.916982,"longitude":-80.29413,"Geolocation":{"type":"Point","coordinates":[-80.29413,25.916982]}},{"index":138,"name":"Call Me Later","number_of_employees":25,"description":"","address1":"5753 nw158 st","address2":"","zip_code":"33014","city":"Miami","state_code":"FL","country_code":"USA","latitude":25.916982,"longitude":-80.29413,"Geolocation":{"type":"Point","coordinates":[-80.29413,25.916982]}},{"index":139,"name":"Lumenergi","number_of_employees":25,"description":"","address1":"8371 Central Avenue","address2":"","zip_code":"94560","city":"Newark","state_code":"CA","country_code":"USA","latitude":37.51821,"longitude":-122.044025,"Geolocation":{"type":"Point","coordinates":[-122.044025,37.51821]}},{"index":140,"name":"MyVishwa","number_of_employees":25,"description":"MyVishwa","address1":"104 Kingston Way","address2":"","zip_code":"19454","city":"North Wales","state_code":"PA","country_code":"USA","latitude":40.247314,"longitude":-75.2023361,"Geolocation":{"type":"Point","coordinates":[-75.2023361,40.247314]}},{"index":141,"name":"Interactive Buzz","number_of_employees":25,"description":"Interactive Buzz, LLC.","address1":"5354 Denny Avenue","address2":"Suite 134","zip_code":"91601","city":"No. Hollywood","state_code":"CA","country_code":"USA","latitude":34.168152,"longitude":-118.363727,"Geolocation":{"type":"Point","coordinates":[-118.363727,34.168152]}},{"index":142,"name":"BASH Gaming","number_of_employees":25,"description":"US Office","address1":"","address2":"","zip_code":"94555","city":"Fremont","state_code":"CA","country_code":"USA","latitude":37.5561712,"longitude":-122.0780632,"Geolocation":{"type":"Point","coordinates":[-122.0780632,37.5561712]}},{"index":143,"name":"Spiral16","number_of_employees":25,"description":"Headquarters","address1":"7171 W 95th St","address2":"Suite 310","zip_code":"66212","city":"Overland Park","state_code":"KS","country_code":"USA","latitude":38.929582,"longitude":-94.660375,"Geolocation":{"type":"Point","coordinates":[-94.660375,38.929582]}},{"index":144,"name":"Lat49","number_of_employees":24,"description":"Lat49's Geo-location","address1":"555 W Hastings","address2":"Floor 11","zip_code":"V6B 5L1","city":"Vancouver, BC","state_code":null,"country_code":"CAN","latitude":49.275332,"longitude":-123.120893,"Geolocation":{"type":"Point","coordinates":[-123.120893,49.275332]}},{"index":145,"name":"Sales Maverick","number_of_employees":24,"description":"Addison TX Office","address1":"15455 North Dallas Pkwy,","address2":"Suite 600","zip_code":"75001","city":"Addison","state_code":"TX","country_code":"USA","latitude":32.960053,"longitude":-96.82273,"Geolocation":{"type":"Point","coordinates":[-96.82273,32.960053]}},{"index":146,"name":"Hunch","number_of_employees":23,"description":"","address1":"54 West 21st. Street...","address2":"","zip_code":"10010","city":"New York","state_code":"NY","country_code":"USA","latitude":40.741179,"longitude":-73.993182,"Geolocation":{"type":"Point","coordinates":[-73.993182,40.741179]}},{"index":147,"name":"Yipit","number_of_employees":23,"description":"HQ","address1":"3 W 18th","address2":"2nd Floor","zip_code":"10011","city":"New York","state_code":"NY","country_code":"USA","latitude":40.744618,"longitude":-73.987764,"Geolocation":{"type":"Point","coordinates":[-73.987764,40.744618]}},{"index":148,"name":"Bleacher Report","number_of_employees":22,"description":"","address1":"San Francisco, USA 153 Kearny Street, 2nd Floor","address2":"","zip_code":"94107","city":"San Francisco","state_code":"CA","country_code":"USA","latitude":37.776467,"longitude":-122.395792,"Geolocation":{"type":"Point","coordinates":[-122.395792,37.776467]}},{"index":149,"name":"Serious Business","number_of_employees":22,"description":"","address1":"580 Market Street","address2":"#600","zip_code":"94104","city":"San Francisco","state_code":"CA","country_code":"USA","latitude":37.7893215,"longitude":-122.4013624,"Geolocation":{"type":"Point","coordinates":[-122.4013624,37.7893215]}},{"index":150,"name":"BrandYourself","number_of_employees":22,"description":"","address1":"120 Walker St","address2":"FL 2","zip_code":"10013","city":"New York","state_code":"NY","country_code":"USA","latitude":42.275263,"longitude":-71.24762,"Geolocation":{"type":"Point","coordinates":[-71.24762,42.275263]}},{"index":151,"name":"CrimeReports","number_of_employees":22,"description":"","address1":"2015 South 1100 East","address2":"","zip_code":"84106","city":"Salt Lake City","state_code":"UT","country_code":"USA","latitude":40.726342,"longitude":-111.858835,"Geolocation":{"type":"Point","coordinates":[-111.858835,40.726342]}},{"index":152,"name":"Gowalla","number_of_employees":22,"description":"Austin Headquarters","address1":"","address2":"","zip_code":"78701","city":"Austin","state_code":"TX","country_code":"USA","latitude":30.2729209,"longitude":-97.7443863,"Geolocation":{"type":"Point","coordinates":[-97.7443863,30.2729209]}},{"index":153,"name":"Viridity Software","number_of_employees":22,"description":"Corporate Headquarters","address1":"5 Burlington Woods Suite 205","address2":"","zip_code":"01803","city":"Burlington","state_code":"MA","country_code":"USA","latitude":42.4871509,"longitude":-71.1986329,"Geolocation":{"type":"Point","coordinates":[-71.1986329,42.4871509]}},{"index":154,"name":"Moogo","number_of_employees":22,"description":"Headquarters","address1":"Pohjantie 3","address2":"","zip_code":"02100","city":"Espoo","state_code":null,"country_code":"FIN","latitude":60.1759901,"longitude":24.8004316,"Geolocation":{"type":"Point","coordinates":[24.8004316,60.1759901]}},{"index":155,"name":"Ciaobelli","number_of_employees":20,"description":null,"address1":"","address2":"","zip_code":"00100","city":"Rome","state_code":null,"country_code":"ITA","latitude":41.980591,"longitude":12.507358,"Geolocation":{"type":"Point","coordinates":[12.507358,41.980591]}},{"index":156,"name":"Lindotiger","number_of_employees":20,"description":"World Headquarters","address1":"425 Market Street","address2":"","zip_code":"94105","city":"San Francisco","state_code":"CA","country_code":"USA","latitude":38.7072,"longitude":-121.28,"Geolocation":{"type":"Point","coordinates":[-121.28,38.7072]}},{"index":157,"name":"BuyerRaja","number_of_employees":20,"description":null,"address1":"#539,16th cross","address2":"Indiranagar 2nd stage","zip_code":"560038","city":"Bangalore","state_code":null,"country_code":"IND","latitude":13.033353,"longitude":77.578768,"Geolocation":{"type":"Point","coordinates":[77.578768,13.033353]}},{"index":158,"name":"HRSnap! Corporation","number_of_employees":20,"description":null,"address1":"848 N. Rainbow Blvd. #2398","address2":"","zip_code":"89107","city":"Las Vegas","state_code":"NV","country_code":"USA","latitude":36.180757,"longitude":-115.242203,"Geolocation":{"type":"Point","coordinates":[-115.242203,36.180757]}},{"index":159,"name":"Protecode","number_of_employees":20,"description":"","address1":"515 Legget Drive","address2":"Suite 700","zip_code":"K2K 3G4","city":"Ottawa","state_code":null,"country_code":"CAN","latitude":45.352255,"longitude":-75.834151,"Geolocation":{"type":"Point","coordinates":[-75.834151,45.352255]}},{"index":160,"name":"Manam Infotech","number_of_employees":20,"description":null,"address1":"#406, 1st A Main","address2":"Kasturi Nagar","zip_code":"560043","city":"Bangalore","state_code":null,"country_code":"IND","latitude":12.975531,"longitude":77.653739,"Geolocation":{"type":"Point","coordinates":[77.653739,12.975531]}},{"index":161,"name":"BitRock","number_of_employees":20,"description":"","address1":"1151 Marina Village Pkwy,","address2":"Suite 101","zip_code":"94501","city":"Alameda","state_code":"CA","country_code":"USA","latitude":37.78424,"longitude":-122.274771,"Geolocation":{"type":"Point","coordinates":[-122.274771,37.78424]}},{"index":162,"name":"tolmolbol","number_of_employees":20,"description":"tolmolbol","address1":"6-3-655\/4,Somajiguda","address2":"","zip_code":"500082","city":"Hyderabad","state_code":null,"country_code":"IND","latitude":17.413687,"longitude":78.444474,"Geolocation":{"type":"Point","coordinates":[78.444474,17.413687]}},{"index":163,"name":"CakeMail","number_of_employees":20,"description":"Headquarters","address1":"145 - 4020 St-Ambroise","address2":"","zip_code":"H4C 2C7","city":"Montreal, QC","state_code":null,"country_code":"CAN","latitude":45.475206,"longitude":-73.580782,"Geolocation":{"type":"Point","coordinates":[-73.580782,45.475206]}},{"index":164,"name":"Gopher","number_of_employees":20,"description":"","address1":"PO Box 37996","address2":"","zip_code":"1052","city":"Parnell","state_code":null,"country_code":"NZL","latitude":-36.8534764,"longitude":174.7863813,"Geolocation":{"type":"Point","coordinates":[174.7863813,-36.8534764]}},{"index":165,"name":"Adgregate Markets","number_of_employees":20,"description":"HQ","address1":"28 Liberty Ship Way","address2":"Suite 2800","zip_code":"94965","city":"Sausalito","state_code":"CA","country_code":"USA","latitude":37.864435,"longitude":-122.490586,"Geolocation":{"type":"Point","coordinates":[-122.490586,37.864435]}},{"index":166,"name":"eLagaan","number_of_employees":20,"description":"Bangalore, India (HQ)","address1":"1st Floor, 19 KN Govinda Reddy Layout","address2":"Arekere Mico Layout, Bannerghatta Road","zip_code":"560076","city":"Bangalore","state_code":null,"country_code":"IND","latitude":12.971606,"longitude":77.594376,"Geolocation":{"type":"Point","coordinates":[77.594376,12.971606]}},{"index":167,"name":"Adgregate Markets","number_of_employees":20,"description":"HQ","address1":"28 Liberty Ship Way","address2":"Suite 2800","zip_code":"94965","city":"Sausalito","state_code":"CA","country_code":"USA","latitude":37.864435,"longitude":-122.490586,"Geolocation":{"type":"Point","coordinates":[-122.490586,37.864435]}},{"index":168,"name":"eLagaan","number_of_employees":20,"description":"Bangalore, India (HQ)","address1":"1st Floor, 19 KN Govinda Reddy Layout","address2":"Arekere Mico Layout, Bannerghatta Road","zip_code":"560076","city":"Bangalore","state_code":null,"country_code":"IND","latitude":12.971606,"longitude":77.594376,"Geolocation":{"type":"Point","coordinates":[77.594376,12.971606]}},{"index":169,"name":"Pongr","number_of_employees":20,"description":"Boston Office","address1":"129 Newbury St","address2":"4th Floor","zip_code":"02116","city":"Boston","state_code":"MA","country_code":"USA","latitude":41.587539,"longitude":-93.625499,"Geolocation":{"type":"Point","coordinates":[-93.625499,41.587539]}},{"index":170,"name":"Octopus IP Communications","number_of_employees":20,"description":"HQ","address1":"56 Sparks Street","address2":"Suite 512","zip_code":"K1P 5A9","city":"Ottawa","state_code":null,"country_code":"CAN","latitude":45.4231289,"longitude":-75.696716,"Geolocation":{"type":"Point","coordinates":[-75.696716,45.4231289]}},{"index":171,"name":"CaptainU","number_of_employees":20,"description":"SF Office","address1":"","address2":"","zip_code":"94102","city":"San Francisco","state_code":"CA","country_code":"USA","latitude":41.7894201,"longitude":-87.5962319,"Geolocation":{"type":"Point","coordinates":[-87.5962319,41.7894201]}},{"index":172,"name":"VODECLIC","number_of_employees":20,"description":"Headquarters","address1":"36 rue Jules Verne","address2":"","zip_code":"92300","city":"Levallois-Perret","state_code":null,"country_code":"FRA","latitude":48.891986,"longitude":2.319287,"Geolocation":{"type":"Point","coordinates":[2.319287,48.891986]}},{"index":173,"name":"BrowserObject","number_of_employees":20,"description":"BrowserObject.com","address1":"1901 60th PL","address2":"L1020","zip_code":"34203","city":"Brandenton","state_code":"FL","country_code":"USA","latitude":27.445135,"longitude":-82.485057,"Geolocation":{"type":"Point","coordinates":[-82.485057,27.445135]}},{"index":174,"name":"JAZD Markets","number_of_employees":20,"description":"Corporate Headquarters","address1":"3 Dundee Park, Suite 102","address2":"","zip_code":"01810","city":"Andover","state_code":"MA","country_code":"USA","latitude":42.6555302,"longitude":-71.1455618,"Geolocation":{"type":"Point","coordinates":[-71.1455618,42.6555302]}},{"index":175,"name":"RJMetrics","number_of_employees":20,"description":"","address1":"1315 Walnut Street Suite 1532","address2":"","zip_code":"19107","city":"Philadelphia","state_code":"PA","country_code":"USA","latitude":39.9443552,"longitude":-75.1257381,"Geolocation":{"type":"Point","coordinates":[-75.1257381,39.9443552]}},{"index":176,"name":"Pictela","number_of_employees":20,"description":"Pictela New York","address1":"770 Broadway","address2":"","zip_code":"10003","city":"New York","state_code":"NY","country_code":"USA","latitude":40.756054,"longitude":-73.986951,"Geolocation":{"type":"Point","coordinates":[-73.986951,40.756054]}},{"index":177,"name":"Babajob","number_of_employees":20,"description":"Babajob Services","address1":"266 7th Main, Flat B3","address2":"Vars Magnolia","zip_code":"56003","city":"Bangalore","state_code":null,"country_code":"IND","latitude":12.9211588,"longitude":77.5557097,"Geolocation":{"type":"Point","coordinates":[77.5557097,12.9211588]}},{"index":178,"name":"Panfu","number_of_employees":20,"description":"Young Internet GmbH","address1":"Winsstra\u00c3\u0178e 62\/63","address2":"","zip_code":"10405","city":"Berlin","state_code":null,"country_code":"DEU","latitude":52.5283111,"longitude":13.4120986,"Geolocation":{"type":"Point","coordinates":[13.4120986,52.5283111]}},{"index":179,"name":"GameChanger Media","number_of_employees":20,"description":"New York Office","address1":"86 Chambers St","address2":"2nd Floor","zip_code":"10007","city":"New York","state_code":"NY","country_code":"USA","latitude":40.7078343,"longitude":-74.0136605,"Geolocation":{"type":"Point","coordinates":[-74.0136605,40.7078343]}},{"index":180,"name":"WEEZEVENT","number_of_employees":20,"description":"French Office","address1":"110 rue des Poissonniers","address2":"Bureau 307","zip_code":"75018","city":"Paris","state_code":null,"country_code":"FRA","latitude":48.8952712,"longitude":2.4476331,"Geolocation":{"type":"Point","coordinates":[2.4476331,48.8952712]}},{"index":181,"name":"VideoBloom","number_of_employees":20,"description":"World Headquarters","address1":"7350 E Progress Pl","address2":"","zip_code":"80111","city":"Greenwood Village","state_code":"CO","country_code":"USA","latitude":39.620872,"longitude":-104.903368,"Geolocation":{"type":"Point","coordinates":[-104.903368,39.620872]}},{"index":182,"name":"MyEdu","number_of_employees":20,"description":"Corporate Office","address1":"1301 S. MoPac Expy","address2":"Ste. 250","zip_code":"78746","city":"Austin","state_code":"TX","country_code":"USA","latitude":30.288159,"longitude":-97.750154,"Geolocation":{"type":"Point","coordinates":[-97.750154,30.288159]}},{"index":183,"name":"Milo","number_of_employees":20,"description":"Headquarters","address1":"170A University Ave.","address2":"","zip_code":"94301","city":"Palo Alto","state_code":"CA","country_code":"USA","latitude":37.444531,"longitude":-122.163352,"Geolocation":{"type":"Point","coordinates":[-122.163352,37.444531]}},{"index":184,"name":"HariOmTechnologies","number_of_employees":20,"description":"main office","address1":"Bhopal","address2":"Bhopal","zip_code":"462021","city":"Bhopal","state_code":null,"country_code":"IND","latitude":23.2771102,"longitude":77.4589032,"Geolocation":{"type":"Point","coordinates":[77.4589032,23.2771102]}},{"index":185,"name":"Rue89","number_of_employees":20,"description":"","address1":"24, rue de l'Est,","address2":"","zip_code":"75020 Paris,","city":"","state_code":null,"country_code":"FRA","latitude":48.8711089,"longitude":2.3935987,"Geolocation":{"type":"Point","coordinates":[2.3935987,48.8711089]}},{"index":186,"name":"ClickFuel","number_of_employees":20,"description":"ClickFuel","address1":"7 New England Executive Park","address2":"Suite 130","zip_code":"01803","city":"Burlington","state_code":"MA","country_code":"USA","latitude":42.3406534,"longitude":-71.0680027,"Geolocation":{"type":"Point","coordinates":[-71.0680027,42.3406534]}},{"index":187,"name":"Davyin Internet Solutions","number_of_employees":20,"description":"Shanghai Office","address1":"Room 311, Bldg.2, No.900, North Zhongshan road,","address2":"","zip_code":"200070","city":"Shanghai","state_code":null,"country_code":"CHN","latitude":31.2366983,"longitude":121.4137257,"Geolocation":{"type":"Point","coordinates":[121.4137257,31.2366983]}},{"index":188,"name":"Tiverias Apps","number_of_employees":20,"description":"Tiverias Apps LLC.","address1":"222 Third St, Suite 1320","address2":"","zip_code":"02142","city":"Cambridge","state_code":"MA","country_code":"USA","latitude":42.3672873,"longitude":-71.0814466,"Geolocation":{"type":"Point","coordinates":[-71.0814466,42.3672873]}},{"index":189,"name":"Siri","number_of_employees":19,"description":"Headquarters","address1":"","address2":"","zip_code":"","city":"San Jose","state_code":"CA","country_code":"USA","latitude":37.320052,"longitude":-121.877636,"Geolocation":{"type":"Point","coordinates":[-121.877636,37.320052]}},{"index":190,"name":"Formspring","number_of_employees":19,"description":"Formspring","address1":"","address2":"","zip_code":"94105","city":"San Francisco","state_code":"CA","country_code":"USA","latitude":39.9052263,"longitude":-86.0547016,"Geolocation":{"type":"Point","coordinates":[-86.0547016,39.9052263]}},{"index":191,"name":"espor","number_of_employees":19,"description":"Mailing address","address1":"1400 16th Street","address2":"Suite 400","zip_code":"80202","city":"Denver","state_code":"CO","country_code":"USA","latitude":39.3926188,"longitude":-104.8943767,"Geolocation":{"type":"Point","coordinates":[-104.8943767,39.3926188]}},{"index":192,"name":"Patch","number_of_employees":19,"description":"","address1":"584 Broadway,","address2":"Suite 1206","zip_code":"10012","city":"New York","state_code":"NY","country_code":"USA","latitude":40.724604,"longitude":-73.996876,"Geolocation":{"type":"Point","coordinates":[-73.996876,40.724604]}},{"index":193,"name":"YouNoodle","number_of_employees":18,"description":"","address1":"330 Townsend St","address2":"Suite 1","zip_code":"94107","city":"San Francisco","state_code":"CA","country_code":"USA","latitude":37.7766587,"longitude":-122.395875,"Geolocation":{"type":"Point","coordinates":[-122.395875,37.7766587]}},{"index":194,"name":"Sprout","number_of_employees":18,"description":"Hawaii Office","address1":"2800 Woodlawn Drive, Suite 138","address2":"","zip_code":"96822","city":"Honolulu","state_code":"HI","country_code":"USA","latitude":21.30829,"longitude":-157.8086025,"Geolocation":{"type":"Point","coordinates":[-157.8086025,21.30829]}},{"index":195,"name":"Titan Gaming","number_of_employees":18,"description":"Santa Monica Office","address1":"1351 4th Street, 4th floor","address2":"","zip_code":"90401","city":"Santa Monica","state_code":"CA","country_code":"USA","latitude":53.544711,"longitude":-113.515769,"Geolocation":{"type":"Point","coordinates":[-113.515769,53.544711]}},{"index":196,"name":"StudioNow","number_of_employees":18,"description":"HQ","address1":"1400 18th Ave. South","address2":"Suite A2 West","zip_code":"37212","city":"Nashville","state_code":"TN","country_code":"USA","latitude":36.13996,"longitude":-86.796377,"Geolocation":{"type":"Point","coordinates":[-86.796377,36.13996]}},{"index":197,"name":"StudioNow","number_of_employees":18,"description":"HQ","address1":"1400 18th Ave. South","address2":"Suite A2 West","zip_code":"37212","city":"Nashville","state_code":"TN","country_code":"USA","latitude":36.13996,"longitude":-86.796377,"Geolocation":{"type":"Point","coordinates":[-86.796377,36.13996]}},{"index":198,"name":"TabUp","number_of_employees":18,"description":"HQ","address1":"777 Summer Street","address2":"","zip_code":"06901","city":"Stamford","state_code":"CT","country_code":"USA","latitude":41.058733,"longitude":-73.5399,"Geolocation":{"type":"Point","coordinates":[-73.5399,41.058733]}},{"index":199,"name":"Pathable","number_of_employees":18,"description":"","address1":"4065 4th Ave NE","address2":"","zip_code":"98105","city":"Seattle","state_code":"WA","country_code":"USA","latitude":47.657435,"longitude":-122.324861,"Geolocation":{"type":"Point","coordinates":[-122.324861,47.657435]}},{"index":200,"name":"TVLesson","number_of_employees":18,"description":"","address1":"330 East Lambert Road","address2":"Suite 250","zip_code":"92824","city":"Brea","state_code":"CA","country_code":"USA","latitude":33.9266484,"longitude":-117.8771193,"Geolocation":{"type":"Point","coordinates":[-117.8771193,33.9266484]}},{"index":201,"name":"Tivix","number_of_employees":18,"description":"","address1":"1154 Clement Street","address2":"","zip_code":"94118","city":"San Francisco","state_code":"CA","country_code":"USA","latitude":37.792303,"longitude":-122.423132,"Geolocation":{"type":"Point","coordinates":[-122.423132,37.792303]}},{"index":202,"name":"StudyBlue","number_of_employees":18,"description":"","address1":"612 W. Main St.","address2":"Ste 201","zip_code":"53703","city":"Madison","state_code":"WI","country_code":"USA","latitude":43.068006,"longitude":-89.39256,"Geolocation":{"type":"Point","coordinates":[-89.39256,43.068006]}},{"index":203,"name":"CoTweet","number_of_employees":18,"description":"","address1":"Pier 38","address2":"","zip_code":"94107","city":"San Francisco","state_code":"CA","country_code":"USA","latitude":37.7405936,"longitude":-122.3764714,"Geolocation":{"type":"Point","coordinates":[-122.3764714,37.7405936]}},{"index":204,"name":"RURO","number_of_employees":18,"description":"Headquarers","address1":"","address2":"","zip_code":"21705","city":"Frederick","state_code":"MD","country_code":"USA","latitude":39.4142,"longitude":-77.4105,"Geolocation":{"type":"Point","coordinates":[-77.4105,39.4142]}},{"index":205,"name":"Homesnap","number_of_employees":18,"description":"HQ","address1":"5335 Wisconsin Ave, N.W.","address2":"Suite 750","zip_code":"20015","city":"Washington","state_code":"DC","country_code":"USA","latitude":38.960381,"longitude":-77.084811,"Geolocation":{"type":"Point","coordinates":[-77.084811,38.960381]}},{"index":206,"name":"First30Days","number_of_employees":17,"description":null,"address1":"1760 Frankfort Avenue","address2":"","zip_code":"40206","city":"Louisville","state_code":"KY","country_code":"USA","latitude":38.257035,"longitude":-85.717393,"Geolocation":{"type":"Point","coordinates":[-85.717393,38.257035]}},{"index":207,"name":"ScanDigital","number_of_employees":17,"description":"Torrance Office","address1":"680 Knox Street","address2":"","zip_code":"90502","city":"Torrance","state_code":"CA","country_code":"USA","latitude":33.918151,"longitude":-118.41747,"Geolocation":{"type":"Point","coordinates":[-118.41747,33.918151]}},{"index":208,"name":"Myngle","number_of_employees":17,"description":"Myngle","address1":"Wibautstraat 129","address2":"","zip_code":"1091 GL","city":"Amsterdam","state_code":null,"country_code":"NLD","latitude":52.354525,"longitude":4.912106,"Geolocation":{"type":"Point","coordinates":[4.912106,52.354525]}},{"index":209,"name":"ALENTY","number_of_employees":17,"description":"Headquarters","address1":"18, rue Yves Toudic","address2":"","zip_code":"75010","city":"Paris","state_code":null,"country_code":"FRA","latitude":48.8696389,"longitude":2.369933,"Geolocation":{"type":"Point","coordinates":[2.369933,48.8696389]}},{"index":210,"name":"Planzone","number_of_employees":17,"description":"","address1":"52 rue Marcel Dassault","address2":"92514 Boulogne Billancourt","zip_code":"","city":"cedex","state_code":null,"country_code":"FRA","latitude":49.5332371,"longitude":2.1346593,"Geolocation":{"type":"Point","coordinates":[2.1346593,49.5332371]}},{"index":211,"name":"iPharro Media","number_of_employees":17,"description":"Headquarters","address1":"Rundeturmstrasse 10","address2":"","zip_code":"64283","city":"Darmstadt","state_code":null,"country_code":"DEU","latitude":49.8740096,"longitude":8.6605881,"Geolocation":{"type":"Point","coordinates":[8.6605881,49.8740096]}},{"index":212,"name":"ChallengePost","number_of_employees":17,"description":"","address1":"425 West 13th Street","address2":"Suite 504","zip_code":"10014","city":"New York","state_code":"NY","country_code":"USA","latitude":40.7408042,"longitude":-74.00717,"Geolocation":{"type":"Point","coordinates":[-74.00717,40.7408042]}},{"index":213,"name":"Zivity","number_of_employees":16,"description":"","address1":"329 Bryant Street","address2":"Suite 2D","zip_code":"94107","city":"San Francisco","state_code":"CA","country_code":"USA","latitude":37.789488,"longitude":-122.397593,"Geolocation":{"type":"Point","coordinates":[-122.397593,37.789488]}},{"index":214,"name":"Clipta","number_of_employees":16,"description":"Corporate Headquarters","address1":"250 North Wolfe Road","address2":"","zip_code":"94085","city":"Sunnyvale","state_code":"CA","country_code":"USA","latitude":37.3793718,"longitude":-122.0124404,"Geolocation":{"type":"Point","coordinates":[-122.0124404,37.3793718]}},{"index":215,"name":"GIS Planning","number_of_employees":16,"description":"HQ","address1":"333 Bryant St","address2":"Ste 340","zip_code":"94107-4145","city":"San Francisco","state_code":"CA","country_code":"USA","latitude":37.784137,"longitude":-122.408646,"Geolocation":{"type":"Point","coordinates":[-122.408646,37.784137]}},{"index":216,"name":"Refined Labs","number_of_employees":16,"description":"","address1":"Residenzstr. 7","address2":"","zip_code":"803333","city":"Munich","state_code":null,"country_code":"DEU","latitude":48.136326,"longitude":11.562023,"Geolocation":{"type":"Point","coordinates":[11.562023,48.136326]}},{"index":217,"name":"iCharts","number_of_employees":16,"description":"Main Office","address1":"440 North Wolfe Road","address2":"","zip_code":"94085","city":"Sunnyvale","state_code":"CA","country_code":"USA","latitude":37.384239,"longitude":-122.012475,"Geolocation":{"type":"Point","coordinates":[-122.012475,37.384239]}},{"index":218,"name":"iCharts","number_of_employees":16,"description":"Main Office","address1":"440 North Wolfe Road","address2":"","zip_code":"94085","city":"Sunnyvale","state_code":"CA","country_code":"USA","latitude":37.384239,"longitude":-122.012475,"Geolocation":{"type":"Point","coordinates":[-122.012475,37.384239]}},{"index":219,"name":"Neovada","number_of_employees":16,"description":"Headquarter","address1":"Karoline Kristiansensvei 2","address2":"","zip_code":"0661","city":"Oslo","state_code":null,"country_code":"NOR","latitude":59.9137459,"longitude":10.7963809,"Geolocation":{"type":"Point","coordinates":[10.7963809,59.9137459]}},{"index":220,"name":"Worky","number_of_employees":16,"description":"21 Clanwillian Square","address1":"","address2":"Grand Canal Quay","zip_code":"Dublin 2","city":"Dublin","state_code":null,"country_code":"IRL","latitude":53.344104,"longitude":-6.2674937,"Geolocation":{"type":"Point","coordinates":[-6.2674937,53.344104]}},{"index":221,"name":"AdaptiveBlue","number_of_employees":15,"description":"","address1":"131 Varick St","address2":"","zip_code":"10013","city":"NYC","state_code":"NY","country_code":"USA","latitude":40.801358,"longitude":-74.3372,"Geolocation":{"type":"Point","coordinates":[-74.3372,40.801358]}},{"index":222,"name":"MicroPlace","number_of_employees":15,"description":"","address1":"","address2":"","zip_code":"","city":"San Francisco","state_code":"CA","country_code":"USA","latitude":37.775196,"longitude":-122.419204,"Geolocation":{"type":"Point","coordinates":[-122.419204,37.775196]}},{"index":223,"name":"Roost","number_of_employees":15,"description":"","address1":"50 Beale St. 10th Floor","address2":"","zip_code":"94105","city":"San Francisco","state_code":"CA","country_code":"USA","latitude":37.7891288,"longitude":-122.4020276,"Geolocation":{"type":"Point","coordinates":[-122.4020276,37.7891288]}},{"index":224,"name":"Thrive","number_of_employees":15,"description":"","address1":"265 Canal St. STE 601","address2":"","zip_code":"10013","city":"New York","state_code":"NY","country_code":"USA","latitude":40.718871,"longitude":-74.00118,"Geolocation":{"type":"Point","coordinates":[-74.00118,40.718871]}},{"index":225,"name":"Ad Chap","number_of_employees":15,"description":null,"address1":"","address2":"","zip_code":"","city":"Beijing","state_code":null,"country_code":"CHN","latitude":39.905556,"longitude":116.395833,"Geolocation":{"type":"Point","coordinates":[116.395833,39.905556]}},{"index":226,"name":"Ubuket","number_of_employees":15,"description":null,"address1":"","address2":"","zip_code":"","city":"","state_code":null,"country_code":"USA","latitude":37.09024,"longitude":-95.712891,"Geolocation":{"type":"Point","coordinates":[-95.712891,37.09024]}},{"index":227,"name":"MindBites","number_of_employees":15,"description":null,"address1":"","address2":"","zip_code":"","city":"","state_code":null,"country_code":"USA","latitude":37.09024,"longitude":-95.712891,"Geolocation":{"type":"Point","coordinates":[-95.712891,37.09024]}},{"index":228,"name":"Smarkets","number_of_employees":15,"description":"HQ","address1":"22-25 Finsbury Square","address2":"4th Floor North","zip_code":"EC2A 1DX","city":"London","state_code":null,"country_code":"GBR","latitude":51.550757,"longitude":-0.130772,"Geolocation":{"type":"Point","coordinates":[-0.130772,51.550757]}},{"index":229,"name":"NeighborCity","number_of_employees":15,"description":"Home Office","address1":"Soma","address2":"","zip_code":"94103","city":"San Francisco","state_code":"CA","country_code":"USA","latitude":37.775392,"longitude":-122.412214,"Geolocation":{"type":"Point","coordinates":[-122.412214,37.775392]}},{"index":230,"name":"Comindwork","number_of_employees":15,"description":"","address1":"","address2":"","zip_code":"02212","city":"Kiev","state_code":null,"country_code":"UKR","latitude":50.474832,"longitude":30.680651,"Geolocation":{"type":"Point","coordinates":[30.680651,50.474832]}},{"index":231,"name":"Jibes","number_of_employees":15,"description":"Jibes Headquarters","address1":"Newtonlaan 115","address2":"","zip_code":"3584 BH","city":"Utrecht","state_code":null,"country_code":"NLD","latitude":52.091381,"longitude":5.148893,"Geolocation":{"type":"Point","coordinates":[5.148893,52.091381]}},{"index":232,"name":"LifePsychic","number_of_employees":15,"description":"Sheraton Plaza","address1":"1 International Blvd","address2":"Suite 211","zip_code":"07495","city":"Mahwha","state_code":"NJ","country_code":"USA","latitude":41.104239,"longitude":-74.164501,"Geolocation":{"type":"Point","coordinates":[-74.164501,41.104239]}},{"index":233,"name":"Design by Humans","number_of_employees":15,"description":"Design By Humans","address1":"1262 Humboldt Ave","address2":"","zip_code":"95928","city":"Chico","state_code":"CA","country_code":"USA","latitude":39.7324184,"longitude":-121.8211856,"Geolocation":{"type":"Point","coordinates":[-121.8211856,39.7324184]}},{"index":234,"name":"WebStarts","number_of_employees":15,"description":"Free Website Builder","address1":"958 111th Ave. NE","address2":"Suite 2504","zip_code":"98004","city":"Bellevue","state_code":"WA","country_code":"USA","latitude":27.937603,"longitude":-82.2871293,"Geolocation":{"type":"Point","coordinates":[-82.2871293,27.937603]}},{"index":235,"name":"UsingMiles","number_of_employees":15,"description":"Headquarters","address1":"1514 Blake St","address2":"","zip_code":"80202","city":"Denver","state_code":"CO","country_code":"USA","latitude":39.749671,"longitude":-104.9998449,"Geolocation":{"type":"Point","coordinates":[-104.9998449,39.749671]}},{"index":236,"name":"IPO","number_of_employees":15,"description":"Wroclaw Office","address1":"Braniborska 2\/10","address2":"","zip_code":"53-668","city":"Wroclaw","state_code":null,"country_code":"POL","latitude":51.110381,"longitude":17.016446,"Geolocation":{"type":"Point","coordinates":[17.016446,51.110381]}},{"index":237,"name":"UsingMiles","number_of_employees":15,"description":"Headquarters","address1":"1514 Blake St","address2":"","zip_code":"80202","city":"Denver","state_code":"CO","country_code":"USA","latitude":39.749671,"longitude":-104.9998449,"Geolocation":{"type":"Point","coordinates":[-104.9998449,39.749671]}},{"index":238,"name":"IPO","number_of_employees":15,"description":"Wroclaw Office","address1":"Braniborska 2\/10","address2":"","zip_code":"53-668","city":"Wroclaw","state_code":null,"country_code":"POL","latitude":51.110381,"longitude":17.016446,"Geolocation":{"type":"Point","coordinates":[17.016446,51.110381]}},{"index":239,"name":"SimpleCDN","number_of_employees":15,"description":"","address1":"11 Great Oaks","address2":"","zip_code":"95119","city":"San Jose","state_code":"CA","country_code":"USA","latitude":37.2318159,"longitude":-121.7822278,"Geolocation":{"type":"Point","coordinates":[-121.7822278,37.2318159]}},{"index":240,"name":"Xtreme Widgets","number_of_employees":15,"description":"Los Angeles","address1":"4221 Redwood Ave.","address2":"","zip_code":"90066","city":"Los Angeles","state_code":"CA","country_code":"USA","latitude":33.988687,"longitude":-118.439532,"Geolocation":{"type":"Point","coordinates":[-118.439532,33.988687]}},{"index":241,"name":"Dukky","number_of_employees":15,"description":"","address1":"1200 West Causeway Approach","address2":"Suite 24","zip_code":"70471","city":"Mandeville","state_code":"LA","country_code":"USA","latitude":29.973994,"longitude":-90.082202,"Geolocation":{"type":"Point","coordinates":[-90.082202,29.973994]}},{"index":242,"name":"Virgance","number_of_employees":15,"description":"Virgance","address1":"164 S. Park St.","address2":"","zip_code":"94107","city":"San Francisco","state_code":"CA","country_code":"USA","latitude":37.781262,"longitude":-122.394958,"Geolocation":{"type":"Point","coordinates":[-122.394958,37.781262]}},{"index":243,"name":"Aghreni Technologies","number_of_employees":15,"description":"India Office","address1":"335 Double Road","address2":"Indiranagar 1st Stage","zip_code":"560038","city":"Bangalore","state_code":null,"country_code":"IND","latitude":12.9561278,"longitude":77.5922642,"Geolocation":{"type":"Point","coordinates":[77.5922642,12.9561278]}},{"index":244,"name":"Allure Media","number_of_employees":15,"description":"","address1":"Level 4","address2":"177-185 William St","zip_code":"2010","city":"Darlinghurst","state_code":null,"country_code":"AUS","latitude":-33.8719926,"longitude":151.1936039,"Geolocation":{"type":"Point","coordinates":[151.1936039,-33.8719926]}},{"index":245,"name":"Aligned Global","number_of_employees":15,"description":"Headquarters","address1":"8370 W. Flagler Street, Suite 125","address2":"","zip_code":"33144","city":"Miami","state_code":"FL","country_code":"USA","latitude":25.769174,"longitude":-80.331681,"Geolocation":{"type":"Point","coordinates":[-80.331681,25.769174]}},{"index":246,"name":"Club Cooee","number_of_employees":15,"description":"Headquarter","address1":"Europaallee 20","address2":"","zip_code":"67657","city":"Kaiserslautern","state_code":null,"country_code":"DEU","latitude":49.462574,"longitude":7.6934194,"Geolocation":{"type":"Point","coordinates":[7.6934194,49.462574]}},{"index":247,"name":"givezooks!","number_of_employees":15,"description":"","address1":"402 E. Gutierrez St.","address2":"","zip_code":"93101","city":"Santa Barbara","state_code":"CA","country_code":"USA","latitude":34.420316,"longitude":-119.688412,"Geolocation":{"type":"Point","coordinates":[-119.688412,34.420316]}},{"index":248,"name":"Drum Channel","number_of_employees":15,"description":"","address1":"900 Del Norte Blvd","address2":"","zip_code":"93030","city":"Oxnard","state_code":"CA","country_code":"USA","latitude":34.210099,"longitude":-119.12636,"Geolocation":{"type":"Point","coordinates":[-119.12636,34.210099]}},{"index":249,"name":"Green Spider Design","number_of_employees":15,"description":"Headquarters","address1":"P.O. Box 6374","address2":"","zip_code":"78683","city":"Round Rock","state_code":"TX","country_code":"USA","latitude":30.5102,"longitude":-97.7067,"Geolocation":{"type":"Point","coordinates":[-97.7067,30.5102]}},{"index":250,"name":"Tsavo Agency","number_of_employees":15,"description":"Headquarters","address1":"2525 Main Street","address2":"Suite 300","zip_code":"90405","city":"Santa Monica","state_code":"CA","country_code":"USA","latitude":34.0028373,"longitude":-118.4844228,"Geolocation":{"type":"Point","coordinates":[-118.4844228,34.0028373]}},{"index":251,"name":"Groove Commerce","number_of_employees":15,"description":"Groove Headquarters","address1":"2400 Boston Street","address2":"Suite 320","zip_code":"21224","city":"Baltimore","state_code":"MD","country_code":"USA","latitude":39.271785,"longitude":-76.611379,"Geolocation":{"type":"Point","coordinates":[-76.611379,39.271785]}},{"index":252,"name":"KODA","number_of_employees":15,"description":"San Francisco","address1":"220 Montgomery Street","address2":"#991","zip_code":"94104","city":"San Francisco","state_code":"CA","country_code":"USA","latitude":37.788796,"longitude":-122.40971,"Geolocation":{"type":"Point","coordinates":[-122.40971,37.788796]}},{"index":253,"name":"Zankyou","number_of_employees":15,"description":"Madrid","address1":"Faraday 7","address2":"","zip_code":"28049","city":"Madrid","state_code":"ME","country_code":"ESP","latitude":40.6070897,"longitude":-3.6912754,"Geolocation":{"type":"Point","coordinates":[-3.6912754,40.6070897]}},{"index":254,"name":"ArtFire","number_of_employees":15,"description":"","address1":"7739 E. Broadway","address2":"#167","zip_code":"85710","city":"Tucson","state_code":"AZ","country_code":"USA","latitude":32.222156,"longitude":-110.825525,"Geolocation":{"type":"Point","coordinates":[-110.825525,32.222156]}},{"index":255,"name":"Frosmo","number_of_employees":15,"description":"Frosmo HQ","address1":"Erottajankatu 15-17","address2":"","zip_code":"00130","city":"Helsinki","state_code":null,"country_code":"FIN","latitude":60.1659819,"longitude":24.9438568,"Geolocation":{"type":"Point","coordinates":[24.9438568,60.1659819]}},{"index":256,"name":"ProtoShare","number_of_employees":15,"description":"Headquarters","address1":"610 SW Alder Street","address2":"Suite 515","zip_code":"97205","city":"Portland","state_code":"OR","country_code":"USA","latitude":45.519475,"longitude":-122.675255,"Geolocation":{"type":"Point","coordinates":[-122.675255,45.519475]}},{"index":257,"name":"Vae Victis","number_of_employees":15,"description":"Italy Office","address1":"via Emilia Ponente, 1667","address2":"","zip_code":"47023","city":"Cesena","state_code":null,"country_code":"ITA","latitude":44.1480034,"longitude":12.2091265,"Geolocation":{"type":"Point","coordinates":[12.2091265,44.1480034]}},{"index":258,"name":"Musicmetric","number_of_employees":15,"description":"Head Office","address1":"176-179 Shoreditch High Street","address2":"","zip_code":"E1 6HP","city":"London","state_code":null,"country_code":"GBR","latitude":51.5253765,"longitude":-0.0856982,"Geolocation":{"type":"Point","coordinates":[-0.0856982,51.5253765]}},{"index":259,"name":"ShopaService","number_of_employees":15,"description":"Head Office","address1":"1 Orient Way","address2":"Rutherford","zip_code":"07070","city":"NJ","state_code":"NJ","country_code":"USA","latitude":40.827627,"longitude":-74.10081,"Geolocation":{"type":"Point","coordinates":[-74.10081,40.827627]}},{"index":260,"name":"Americanlisted","number_of_employees":15,"description":"Americanlisted","address1":"445 Park Avenue","address2":"","zip_code":"10022","city":"New York","state_code":"NY","country_code":"USA","latitude":40.7615818,"longitude":-73.970624,"Geolocation":{"type":"Point","coordinates":[-73.970624,40.7615818]}},{"index":261,"name":"eFiberTools","number_of_employees":15,"description":"Corporate Office","address1":"329 West Melinda Lane","address2":"Suite 1","zip_code":"85027","city":"Phoenix","state_code":"AZ","country_code":"USA","latitude":33.681664,"longitude":-112.079055,"Geolocation":{"type":"Point","coordinates":[-112.079055,33.681664]}},{"index":262,"name":"inQbation","number_of_employees":15,"description":"Headquarters","address1":"2214 Rock Hill Road","address2":"Suite 010","zip_code":"20170","city":"Herndon","state_code":"VA","country_code":"USA","latitude":38.9552797,"longitude":-77.3381855,"Geolocation":{"type":"Point","coordinates":[-77.3381855,38.9552797]}},{"index":263,"name":"Virtuosant Technology","number_of_employees":15,"description":"Headquarters","address1":"372 Cardinal Road","address2":"","zip_code":"30736","city":"Ringgold","state_code":"GA","country_code":"USA","latitude":34.9790168,"longitude":-85.0957662,"Geolocation":{"type":"Point","coordinates":[-85.0957662,34.9790168]}},{"index":264,"name":"HomePros","number_of_employees":15,"description":"","address1":"12708 Riata Vista Circle","address2":"Suite A-106","zip_code":"78727","city":"Austin","state_code":"TX","country_code":"USA","latitude":30.43385,"longitude":-97.739316,"Geolocation":{"type":"Point","coordinates":[-97.739316,30.43385]}},{"index":265,"name":"Enternships","number_of_employees":15,"description":"Enternships HQ","address1":"5th Floor","address2":"6 Briset Street","zip_code":"EC1M 5NR","city":"London","state_code":null,"country_code":"GBR","latitude":51.5215279,"longitude":-0.1038219,"Geolocation":{"type":"Point","coordinates":[-0.1038219,51.5215279]}},{"index":266,"name":"Culture Jam","number_of_employees":15,"description":"","address1":"2434 Lincoln Blvd","address2":"Floor 2","zip_code":"90291","city":"Los Angeles","state_code":"CA","country_code":"USA","latitude":34.0137151,"longitude":-118.4660597,"Geolocation":{"type":"Point","coordinates":[-118.4660597,34.0137151]}},{"index":267,"name":"Filtrbox","number_of_employees":14,"description":"HQ","address1":"325 Lytton Ave","address2":"","zip_code":"94301","city":"Palo Alto","state_code":"CA","country_code":"USA","latitude":40.010492,"longitude":-105.276843,"Geolocation":{"type":"Point","coordinates":[-105.276843,40.010492]}},{"index":268,"name":"crowdSPRING","number_of_employees":14,"description":null,"address1":"1200 W. Lake St","address2":"","zip_code":"60607","city":"Chicago","state_code":"IL","country_code":"USA","latitude":41.88583,"longitude":-87.657354,"Geolocation":{"type":"Point","coordinates":[-87.657354,41.88583]}},{"index":269,"name":"ioVentures","number_of_employees":14,"description":null,"address1":"","address2":"","zip_code":"84058","city":"Orem","state_code":"UT","country_code":"USA","latitude":40.281338,"longitude":-111.769518,"Geolocation":{"type":"Point","coordinates":[-111.769518,40.281338]}},{"index":270,"name":"KeyVision","number_of_employees":14,"description":null,"address1":"Via Nino Bixio 1","address2":"","zip_code":"20052","city":"Monza (MI)","state_code":null,"country_code":"ITA","latitude":45.587212,"longitude":9.285378,"Geolocation":{"type":"Point","coordinates":[9.285378,45.587212]}},{"index":271,"name":"Olark","number_of_employees":14,"description":"","address1":"245 Ramona St.","address2":"","zip_code":"94301","city":"Palo Alto","state_code":"CA","country_code":"USA","latitude":37.400465,"longitude":-122.073003,"Geolocation":{"type":"Point","coordinates":[-122.073003,37.400465]}},{"index":272,"name":"Wuala","number_of_employees":14,"description":"","address1":"K\u00f6chlistrasse 15","address2":"","zip_code":"8004","city":"Zurich","state_code":null,"country_code":"CHE","latitude":47.384199,"longitude":8.492452,"Geolocation":{"type":"Point","coordinates":[8.492452,47.384199]}},{"index":273,"name":"Mashed Life","number_of_employees":14,"description":"Main Office","address1":"","address2":"","zip_code":"94085","city":"Sunnyvale","state_code":"CA","country_code":"USA","latitude":37.386441,"longitude":-122.012707,"Geolocation":{"type":"Point","coordinates":[-122.012707,37.386441]}},{"index":274,"name":"AdSide","number_of_employees":14,"description":"Headquarters","address1":"247 West 37th Street","address2":"Suite 602","zip_code":"10018","city":"New York","state_code":"NY","country_code":"USA","latitude":40.753931,"longitude":-73.991123,"Geolocation":{"type":"Point","coordinates":[-73.991123,40.753931]}},{"index":275,"name":"Mashed Life","number_of_employees":14,"description":"Main Office","address1":"","address2":"","zip_code":"94085","city":"Sunnyvale","state_code":"CA","country_code":"USA","latitude":37.386441,"longitude":-122.012707,"Geolocation":{"type":"Point","coordinates":[-122.012707,37.386441]}},{"index":276,"name":"AdSide","number_of_employees":14,"description":"Headquarters","address1":"247 West 37th Street","address2":"Suite 602","zip_code":"10018","city":"New York","state_code":"NY","country_code":"USA","latitude":40.753931,"longitude":-73.991123,"Geolocation":{"type":"Point","coordinates":[-73.991123,40.753931]}},{"index":277,"name":"Mobiata","number_of_employees":14,"description":"Headquarters","address1":"","address2":"","zip_code":"","city":"Ann Arbor","state_code":"MI","country_code":"USA","latitude":42.277416,"longitude":-83.733276,"Geolocation":{"type":"Point","coordinates":[-83.733276,42.277416]}},{"index":278,"name":"Avenue Right","number_of_employees":14,"description":"Avenue Right, LLC","address1":"1854 NDSU Research Circle N","address2":"","zip_code":"58102","city":"Fargo","state_code":"ND","country_code":"USA","latitude":46.9037602,"longitude":-96.8098798,"Geolocation":{"type":"Point","coordinates":[-96.8098798,46.9037602]}},{"index":279,"name":"Nirvaha","number_of_employees":14,"description":"Nirvaha Corp","address1":"875 124th Ave NE","address2":"Suite 203","zip_code":"98005","city":"Bellevue","state_code":"WA","country_code":"USA","latitude":47.6008008,"longitude":-122.3342585,"Geolocation":{"type":"Point","coordinates":[-122.3342585,47.6008008]}},{"index":280,"name":"Seesmic","number_of_employees":13,"description":"","address1":"1550 Bryant Street","address2":"Suite 890","zip_code":"94103","city":"San Francisco","state_code":"CA","country_code":"USA","latitude":37.775196,"longitude":-122.419204,"Geolocation":{"type":"Point","coordinates":[-122.419204,37.775196]}},{"index":281,"name":"MeFeedia","number_of_employees":13,"description":null,"address1":"","address2":"","zip_code":"","city":"Burbank","state_code":"CA","country_code":"USA","latitude":34.155869,"longitude":-118.335292,"Geolocation":{"type":"Point","coordinates":[-118.335292,34.155869]}},{"index":282,"name":"Yield Software","number_of_employees":13,"description":null,"address1":"1700 South Amphlett Blvd.","address2":"Suite 202","zip_code":"94402","city":"San Mateo","state_code":"CA","country_code":"USA","latitude":37.558245,"longitude":-122.302654,"Geolocation":{"type":"Point","coordinates":[-122.302654,37.558245]}},{"index":283,"name":"Virsona","number_of_employees":13,"description":"headquarters","address1":"3701 FAU Blvd, Suite 210","address2":"","zip_code":"33431","city":"Boca Raton","state_code":"FL","country_code":"USA","latitude":26.383036,"longitude":-80.097933,"Geolocation":{"type":"Point","coordinates":[-80.097933,26.383036]}},{"index":284,"name":"Virsona","number_of_employees":13,"description":"headquarters","address1":"3701 FAU Blvd, Suite 210","address2":"","zip_code":"33431","city":"Boca Raton","state_code":"FL","country_code":"USA","latitude":26.383036,"longitude":-80.097933,"Geolocation":{"type":"Point","coordinates":[-80.097933,26.383036]}},{"index":285,"name":"Magoosh","number_of_employees":13,"description":"HQ","address1":"2020 Milvia St","address2":"Suite 220","zip_code":"94704","city":"Berkeley","state_code":"CA","country_code":"USA","latitude":37.871087,"longitude":-122.270913,"Geolocation":{"type":"Point","coordinates":[-122.270913,37.871087]}},{"index":286,"name":"Vengeo","number_of_employees":13,"description":"Toronto Office","address1":"1061 St. Clair Ave. West","address2":"Unit 2","zip_code":"M6E1A6","city":"Toronto","state_code":null,"country_code":"CAN","latitude":43.678782,"longitude":-79.439315,"Geolocation":{"type":"Point","coordinates":[-79.439315,43.678782]}},{"index":287,"name":"Kynetx","number_of_employees":13,"description":"Kynetx World HQ","address1":"3098 Executive Parkway","address2":"Suite 275","zip_code":"84043","city":"Lehi","state_code":"UT","country_code":"USA","latitude":40.4273613,"longitude":-111.8967224,"Geolocation":{"type":"Point","coordinates":[-111.8967224,40.4273613]}},{"index":288,"name":"Belighted","number_of_employees":13,"description":"Headquarters","address1":"Place de l'Universit\u00c3\u00a9 25","address2":"","zip_code":"1348","city":"Louvain-la-Neuve","state_code":null,"country_code":"BEL","latitude":50.6713314,"longitude":4.6102492,"Geolocation":{"type":"Point","coordinates":[4.6102492,50.6713314]}},{"index":289,"name":"scoyo","number_of_employees":13,"description":"scoyo GmbH","address1":"Gro\u00c3\u0178er Burstah 50-52","address2":"","zip_code":"20457","city":"Hamburg","state_code":null,"country_code":"DEU","latitude":53.5622698,"longitude":9.9490139,"Geolocation":{"type":"Point","coordinates":[9.9490139,53.5622698]}},{"index":290,"name":"Whiskey Media","number_of_employees":12,"description":"HQ","address1":"921 Front St.","address2":"Suite #100","zip_code":"94111","city":"San Francisco","state_code":"CA","country_code":"USA","latitude":37.856331,"longitude":-122.495222,"Geolocation":{"type":"Point","coordinates":[-122.495222,37.856331]}},{"index":291,"name":"WonderHowTo","number_of_employees":12,"description":null,"address1":"1832 Franklin Street","address2":"","zip_code":"90404","city":"Santa Monica","state_code":"CA","country_code":"USA","latitude":34.031764,"longitude":-118.461884,"Geolocation":{"type":"Point","coordinates":[-118.461884,34.031764]}},{"index":292,"name":"Woopra","number_of_employees":12,"description":"","address1":"","address2":"","zip_code":"","city":"San Francisco","state_code":"CA","country_code":"USA","latitude":31.169036,"longitude":-100.076888,"Geolocation":{"type":"Point","coordinates":[-100.076888,31.169036]}},{"index":293,"name":"FragMob","number_of_employees":12,"description":"","address1":"9191 Towne Centre Drive","address2":"Suite 408","zip_code":"92122","city":"San Diego","state_code":"CA","country_code":"USA","latitude":34.063441,"longitude":-118.36543,"Geolocation":{"type":"Point","coordinates":[-118.36543,34.063441]}},{"index":294,"name":"Strutta","number_of_employees":12,"description":"","address1":"128 West Hastings Street","address2":"Suite 300","zip_code":"V6B 1G8","city":"Vancouver","state_code":null,"country_code":"CAN","latitude":49.2821075,"longitude":-123.1078045,"Geolocation":{"type":"Point","coordinates":[-123.1078045,49.2821075]}},{"index":295,"name":"Memopal","number_of_employees":12,"description":null,"address1":"Via Nepal, 29","address2":"","zip_code":"00144","city":"Rome","state_code":null,"country_code":"ITA","latitude":41.823172,"longitude":12.461425,"Geolocation":{"type":"Point","coordinates":[12.461425,41.823172]}},{"index":296,"name":"Alcance Media Group","number_of_employees":12,"description":"San Francisco","address1":"268 Bush Street, #2703","address2":"","zip_code":"94104","city":"San Francisco","state_code":"CA","country_code":"USA","latitude":37.791068,"longitude":-122.401942,"Geolocation":{"type":"Point","coordinates":[-122.401942,37.791068]}},{"index":297,"name":"NewQuest","number_of_employees":12,"description":"NewQuest - Chamb\u00c3\u00a9ry","address1":"180 rue du Genevois","address2":"Bat C","zip_code":"73000","city":"CHAMBERY","state_code":null,"country_code":"FRA","latitude":45.591163,"longitude":5.92224,"Geolocation":{"type":"Point","coordinates":[5.92224,45.591163]}},{"index":298,"name":"Genbook","number_of_employees":12,"description":"Genbook","address1":"548 Market Street","address2":"","zip_code":"94104","city":"San Francisco","state_code":"CA","country_code":"USA","latitude":37.789902,"longitude":-122.4007791,"Geolocation":{"type":"Point","coordinates":[-122.4007791,37.789902]}},{"index":299,"name":"GEN247","number_of_employees":12,"description":"GEN247 LLC","address1":"Bayard Studios","address2":"98 Bayard St","zip_code":"11222","city":"Brooklyn","state_code":"NY","country_code":"USA","latitude":40.727434,"longitude":-73.9447994,"Geolocation":{"type":"Point","coordinates":[-73.9447994,40.727434]}},{"index":300,"name":"Tubefilter","number_of_employees":12,"description":"Headquarters","address1":"5405 Wilshire Blvd","address2":"Suite 270","zip_code":"90036","city":"Los Angeles","state_code":"CA","country_code":"USA","latitude":34.070436,"longitude":-118.350486,"Geolocation":{"type":"Point","coordinates":[-118.350486,34.070436]}},{"index":301,"name":"TheWebService","number_of_employees":12,"description":"Elgar Business Centre","address1":"Moseley Road","address2":"Halow","zip_code":"WR2 6NJ","city":"Worcester","state_code":null,"country_code":"GBR","latitude":52.232349,"longitude":-2.26681,"Geolocation":{"type":"Point","coordinates":[-2.26681,52.232349]}},{"index":302,"name":"Tubefilter","number_of_employees":12,"description":"Headquarters","address1":"5405 Wilshire Blvd","address2":"Suite 270","zip_code":"90036","city":"Los Angeles","state_code":"CA","country_code":"USA","latitude":34.070436,"longitude":-118.350486,"Geolocation":{"type":"Point","coordinates":[-118.350486,34.070436]}},{"index":303,"name":"TheWebService","number_of_employees":12,"description":"Elgar Business Centre","address1":"Moseley Road","address2":"Halow","zip_code":"WR2 6NJ","city":"Worcester","state_code":null,"country_code":"GBR","latitude":52.232349,"longitude":-2.26681,"Geolocation":{"type":"Point","coordinates":[-2.26681,52.232349]}},{"index":304,"name":"IT Stocklist","number_of_employees":12,"description":"Head Office","address1":"Hardtbergstr. 6","address2":"","zip_code":"53127","city":"Bonn","state_code":null,"country_code":"DEU","latitude":50.710267,"longitude":7.066468,"Geolocation":{"type":"Point","coordinates":[7.066468,50.710267]}},{"index":305,"name":"Underdog Media","number_of_employees":12,"description":"","address1":"10 E Yanonali St.","address2":"Suite 2C","zip_code":"93101","city":"Santa Barbara","state_code":"CA","country_code":"USA","latitude":34.423403,"longitude":-119.704416,"Geolocation":{"type":"Point","coordinates":[-119.704416,34.423403]}},{"index":306,"name":"Compete-At","number_of_employees":12,"description":"Headquarters & Sales","address1":"4905 Del Ray Ave","address2":"Suite 507","zip_code":"20814","city":"Bethesda","state_code":"MD","country_code":"USA","latitude":38.9897861,"longitude":-77.0989247,"Geolocation":{"type":"Point","coordinates":[-77.0989247,38.9897861]}},{"index":307,"name":"Revelation","number_of_employees":12,"description":"","address1":"1200 NW Naito Parkway","address2":"Suite 630","zip_code":"97209","city":"Portland","state_code":"OR","country_code":"USA","latitude":45.504407,"longitude":-122.655545,"Geolocation":{"type":"Point","coordinates":[-122.655545,45.504407]}},{"index":308,"name":"MixMatchMusic","number_of_employees":12,"description":"PO Box","address1":"1325 Howard Avenue","address2":"#923","zip_code":"94010","city":"Burlingame","state_code":"CA","country_code":"USA","latitude":37.5768841,"longitude":-122.3462137,"Geolocation":{"type":"Point","coordinates":[-122.3462137,37.5768841]}},{"index":309,"name":"JobsTAXI","number_of_employees":12,"description":"World Headquarters","address1":"51A Neil Road","address2":"","zip_code":"088829","city":"Singapore","state_code":null,"country_code":"SGP","latitude":1.279684,"longitude":103.842646,"Geolocation":{"type":"Point","coordinates":[103.842646,1.279684]}},